{
  "stops": [
    {
      "id": "vlnr_835016574",
      "name": "Oro uostas",
      "location": {
        "lat": 54.64393,
        "lng": 25.279523
      }
    },
    {
      "id": "vlnr_Vilniaus AS galinė",
      "name": "Vilniaus autobusų stotis",
      "location": {
        "lat": 54.670273626477524,
        "lng": 25.28092160582932
      }
    },
    {
      "id": "vln_0101",
      "name": "Žaliasis tiltas",
      "location": {
        "lat": 54.69236,
        "lng": 25.28048
      }
    },
    {
      "id": "vln_0102",
      "name": "Žaliasis tiltas",
      "location": {
        "lat": 54.69234,
        "lng": 25.28003
      }
    },
    {
      "id": "vln_0104",
      "name": "Europos aikštė",
      "location": {
        "lat": 54.69564,
        "lng": 25.27743
      }
    },
    {
      "id": "vln_0105",
      "name": "Lietuvos sąjūdžio kelias",
      "location": {
        "lat": 54.69825,
        "lng": 25.2663
      }
    },
    {
      "id": "vln_0108",
      "name": "Studentų st.",
      "location": {
        "lat": 54.69724,
        "lng": 25.2643
      }
    },
    {
      "id": "vln_0109",
      "name": "Lvovo st.",
      "location": {
        "lat": 54.69448,
        "lng": 25.28276
      }
    },
    {
      "id": "vln_0110",
      "name": "Lvovo st.",
      "location": {
        "lat": 54.69457,
        "lng": 25.28387
      }
    },
    {
      "id": "vln_0111",
      "name": "Rinktinės st.",
      "location": {
        "lat": 54.69477,
        "lng": 25.28954
      }
    },
    {
      "id": "vln_0112",
      "name": "Šeimyniškių st.",
      "location": {
        "lat": 54.69556,
        "lng": 25.29687
      }
    },
    {
      "id": "vln_0113",
      "name": "Nacionalinė dailės galerija",
      "location": {
        "lat": 54.69671,
        "lng": 25.27311
      }
    },
    {
      "id": "vln_0114",
      "name": "Nacionalinė dailės galerija",
      "location": {
        "lat": 54.69793,
        "lng": 25.27003
      }
    },
    {
      "id": "vln_0115",
      "name": "Šnipiškės",
      "location": {
        "lat": 54.69983,
        "lng": 25.26892
      }
    },
    {
      "id": "vln_0201",
      "name": "Karaliaus Mindaugo tiltas",
      "location": {
        "lat": 54.68858,
        "lng": 25.28741
      }
    },
    {
      "id": "vln_0202",
      "name": "Karaliaus Mindaugo tiltas",
      "location": {
        "lat": 54.68867,
        "lng": 25.28663
      }
    },
    {
      "id": "vln_0203",
      "name": "Arkikatedra",
      "location": {
        "lat": 54.68665,
        "lng": 25.28644
      }
    },
    {
      "id": "vln_0207",
      "name": "Jogailos st.",
      "location": {
        "lat": 54.68526,
        "lng": 25.27821
      }
    },
    {
      "id": "vln_0210",
      "name": "Vinco Kudirkos aikštė",
      "location": {
        "lat": 54.68753,
        "lng": 25.2798
      }
    },
    {
      "id": "vln_0211",
      "name": "Vinco Kudirkos aikštė",
      "location": {
        "lat": 54.68871,
        "lng": 25.27982
      }
    },
    {
      "id": "vln_0212",
      "name": "Islandijos st.",
      "location": {
        "lat": 54.685,
        "lng": 25.27641
      }
    },
    {
      "id": "vln_0214",
      "name": "Juozo Tumo-Vaižganto st.",
      "location": {
        "lat": 54.68835,
        "lng": 25.26799
      }
    },
    {
      "id": "vln_0215",
      "name": "Pamėnkalnio st.",
      "location": {
        "lat": 54.68736,
        "lng": 25.26934
      }
    },
    {
      "id": "vln_0216",
      "name": "Pamėnkalnio st.",
      "location": {
        "lat": 54.68784,
        "lng": 25.26659
      }
    },
    {
      "id": "vln_0217",
      "name": "Jokūbo Jasinskio st.",
      "location": {
        "lat": 54.68828,
        "lng": 25.26352
      }
    },
    {
      "id": "vln_0218",
      "name": "Jokūbo Jasinskio st.",
      "location": {
        "lat": 54.68812,
        "lng": 25.26329
      }
    },
    {
      "id": "vln_0219",
      "name": "Gedimino prospektas",
      "location": {
        "lat": 54.68909,
        "lng": 25.26261
      }
    },
    {
      "id": "vln_0220",
      "name": "Gedimino prospektas",
      "location": {
        "lat": 54.68894,
        "lng": 25.26208
      }
    },
    {
      "id": "vln_0221",
      "name": "Alberto Goštauto st.",
      "location": {
        "lat": 54.69456,
        "lng": 25.26747
      }
    },
    {
      "id": "vln_0223",
      "name": "Vašingtono aikštė",
      "location": {
        "lat": 54.6916,
        "lng": 25.26987
      }
    },
    {
      "id": "vln_0224",
      "name": "Kražių st.",
      "location": {
        "lat": 54.69179,
        "lng": 25.27091
      }
    },
    {
      "id": "vln_0225",
      "name": "Kražių st.",
      "location": {
        "lat": 54.69172,
        "lng": 25.27116
      }
    },
    {
      "id": "vln_0226",
      "name": "Juozo Tumo-Vaižganto st.",
      "location": {
        "lat": 54.68958,
        "lng": 25.26922
      }
    },
    {
      "id": "vln_0227",
      "name": "Gynėjų st.",
      "location": {
        "lat": 54.69349,
        "lng": 25.26557
      }
    },
    {
      "id": "vln_0231",
      "name": "Lukiškės",
      "location": {
        "lat": 54.6909,
        "lng": 25.27072
      }
    },
    {
      "id": "vln_0232",
      "name": "Operos ir baleto teatras",
      "location": {
        "lat": 54.69123,
        "lng": 25.27574
      }
    },
    {
      "id": "vln_0233",
      "name": "Operos ir baleto teatras",
      "location": {
        "lat": 54.69081,
        "lng": 25.27732
      }
    },
    {
      "id": "vln_0235",
      "name": "Centro poliklinika",
      "location": {
        "lat": 54.68371,
        "lng": 25.27701
      }
    },
    {
      "id": "vln_0236",
      "name": "Lukiškės",
      "location": {
        "lat": 54.69037,
        "lng": 25.27231
      }
    },
    {
      "id": "vln_0237",
      "name": "Antano Tumėno st.",
      "location": {
        "lat": 54.69225,
        "lng": 25.26124
      }
    },
    {
      "id": "vln_0245",
      "name": "Vokiečių st.",
      "location": {
        "lat": 54.68057,
        "lng": 25.28274
      }
    },
    {
      "id": "vln_0247",
      "name": "Rotušė",
      "location": {
        "lat": 54.67823,
        "lng": 25.28634
      }
    },
    {
      "id": "vln_0301",
      "name": "Liubarto tiltas",
      "location": {
        "lat": 54.68893,
        "lng": 25.25691
      }
    },
    {
      "id": "vln_0302",
      "name": "Liubarto tiltas",
      "location": {
        "lat": 54.68908,
        "lng": 25.25574
      }
    },
    {
      "id": "vln_0303",
      "name": "Kęstučio st.",
      "location": {
        "lat": 54.68948,
        "lng": 25.2519
      }
    },
    {
      "id": "vln_0304",
      "name": "Kęstučio st.",
      "location": {
        "lat": 54.69121,
        "lng": 25.25158
      }
    },
    {
      "id": "vln_0307",
      "name": "Latvių st.",
      "location": {
        "lat": 54.69385,
        "lng": 25.25072
      }
    },
    {
      "id": "vln_0308",
      "name": "Latvių st.",
      "location": {
        "lat": 54.69433,
        "lng": 25.25075
      }
    },
    {
      "id": "vln_0311",
      "name": "Sėlių st.",
      "location": {
        "lat": 54.69744,
        "lng": 25.24977
      }
    },
    {
      "id": "vln_0312",
      "name": "Sėlių st.",
      "location": {
        "lat": 54.6984,
        "lng": 25.24868
      }
    },
    {
      "id": "vln_0313",
      "name": "Žvėrynas",
      "location": {
        "lat": 54.69872,
        "lng": 25.24565
      }
    },
    {
      "id": "vln_0314",
      "name": "Žvėrynas",
      "location": {
        "lat": 54.69938,
        "lng": 25.24499
      }
    },
    {
      "id": "vln_0315",
      "name": "Žvėrynas",
      "location": {
        "lat": 54.69948,
        "lng": 25.2432
      }
    },
    {
      "id": "vln_0316",
      "name": "Panorama",
      "location": {
        "lat": 54.69892,
        "lng": 25.25607
      }
    },
    {
      "id": "vln_0317",
      "name": "Panorama",
      "location": {
        "lat": 54.69915,
        "lng": 25.25704
      }
    },
    {
      "id": "vln_0318",
      "name": "Švietimo akademija",
      "location": {
        "lat": 54.6983,
        "lng": 25.26121
      }
    },
    {
      "id": "vln_0319",
      "name": "Švietimo akademija",
      "location": {
        "lat": 54.6987,
        "lng": 25.26133
      }
    },
    {
      "id": "vln_0320",
      "name": "Studentų st.",
      "location": {
        "lat": 54.69729,
        "lng": 25.26327
      }
    },
    {
      "id": "vln_0321",
      "name": "Saltoniškės",
      "location": {
        "lat": 54.70123,
        "lng": 25.26289
      }
    },
    {
      "id": "vln_0401",
      "name": "Šv. Petro ir Povilo bažnyčia",
      "location": {
        "lat": 54.69301,
        "lng": 25.30313
      }
    },
    {
      "id": "vln_0402",
      "name": "Šv. Petro ir Povilo bažnyčia",
      "location": {
        "lat": 54.69275,
        "lng": 25.30315
      }
    },
    {
      "id": "vln_0403",
      "name": "Kalnų parkas",
      "location": {
        "lat": 54.68938,
        "lng": 25.2945
      }
    },
    {
      "id": "vln_0404",
      "name": "Kalnų parkas",
      "location": {
        "lat": 54.68965,
        "lng": 25.29581
      }
    },
    {
      "id": "vln_0405",
      "name": "Arkikatedra",
      "location": {
        "lat": 54.68667,
        "lng": 25.28675
      }
    },
    {
      "id": "vln_0406",
      "name": "Reformatų st.",
      "location": {
        "lat": 54.68149,
        "lng": 25.2774
      }
    },
    {
      "id": "vln_0407",
      "name": "Reformatų st.",
      "location": {
        "lat": 54.68117,
        "lng": 25.27731
      }
    },
    {
      "id": "vln_0408",
      "name": "Trakų st.",
      "location": {
        "lat": 54.68004,
        "lng": 25.27628
      }
    },
    {
      "id": "vln_0409",
      "name": "Trakų st.",
      "location": {
        "lat": 54.67934,
        "lng": 25.27802
      }
    },
    {
      "id": "vln_0410",
      "name": "Trakų st.",
      "location": {
        "lat": 54.67902,
        "lng": 25.27855
      }
    },
    {
      "id": "vln_0411",
      "name": "Vingriai",
      "location": {
        "lat": 54.67665,
        "lng": 25.28086
      }
    },
    {
      "id": "vln_0412",
      "name": "Gėlių st.",
      "location": {
        "lat": 54.67424,
        "lng": 25.28366
      }
    },
    {
      "id": "vln_0413",
      "name": "Rūdninkų st.",
      "location": {
        "lat": 54.67454,
        "lng": 25.28492
      }
    },
    {
      "id": "vln_0414",
      "name": "Aguonų st.",
      "location": {
        "lat": 54.67284,
        "lng": 25.27736
      }
    },
    {
      "id": "vln_0415",
      "name": "Aguonų st.",
      "location": {
        "lat": 54.67263,
        "lng": 25.27852
      }
    },
    {
      "id": "vln_0416",
      "name": "Aušros vartai",
      "location": {
        "lat": 54.67368,
        "lng": 25.28949
      }
    },
    {
      "id": "vln_0417",
      "name": "Aušros vartai",
      "location": {
        "lat": 54.67473,
        "lng": 25.29278
      }
    },
    {
      "id": "vln_0418",
      "name": "Gervėčių st.",
      "location": {
        "lat": 54.6746,
        "lng": 25.29728
      }
    },
    {
      "id": "vln_0419",
      "name": "Gervėčių st.",
      "location": {
        "lat": 54.67336,
        "lng": 25.29882
      }
    },
    {
      "id": "vln_0420",
      "name": "Misionierių st.",
      "location": {
        "lat": 54.6766,
        "lng": 25.29735
      }
    },
    {
      "id": "vln_0421",
      "name": "Misionierių st.",
      "location": {
        "lat": 54.67662,
        "lng": 25.29652
      }
    },
    {
      "id": "vln_0422",
      "name": "Subačiaus st.",
      "location": {
        "lat": 54.67701,
        "lng": 25.30362
      }
    },
    {
      "id": "vln_0423",
      "name": "Subačiaus st.",
      "location": {
        "lat": 54.67723,
        "lng": 25.30249
      }
    },
    {
      "id": "vln_0424",
      "name": "Drujos st.",
      "location": {
        "lat": 54.67839,
        "lng": 25.31053
      }
    },
    {
      "id": "vln_0426",
      "name": "Užupio st.",
      "location": {
        "lat": 54.67991,
        "lng": 25.29266
      }
    },
    {
      "id": "vln_0427",
      "name": "Užupio st.",
      "location": {
        "lat": 54.67994,
        "lng": 25.29236
      }
    },
    {
      "id": "vln_0429",
      "name": "Dailės akademija",
      "location": {
        "lat": 54.68212,
        "lng": 25.29297
      }
    },
    {
      "id": "vln_0430",
      "name": "Dailės akademija",
      "location": {
        "lat": 54.68401,
        "lng": 25.29287
      }
    },
    {
      "id": "vln_0431",
      "name": "Bernardinų sodas",
      "location": {
        "lat": 54.68472,
        "lng": 25.29025
      }
    },
    {
      "id": "vln_0432",
      "name": "Bernardinų sodas",
      "location": {
        "lat": 54.68497,
        "lng": 25.2911
      }
    },
    {
      "id": "vln_0437",
      "name": "Filaretų st.",
      "location": {
        "lat": 54.68473,
        "lng": 25.30917
      }
    },
    {
      "id": "vln_0438",
      "name": "Krivių st.",
      "location": {
        "lat": 54.6873,
        "lng": 25.30562
      }
    },
    {
      "id": "vln_0439",
      "name": "Vasaros st.",
      "location": {
        "lat": 54.6913,
        "lng": 25.30471
      }
    },
    {
      "id": "vln_0440",
      "name": "Aušros vartai",
      "location": {
        "lat": 54.67417,
        "lng": 25.28808
      }
    },
    {
      "id": "vln_0441",
      "name": "Karaliaus Mindaugo tiltas",
      "location": {
        "lat": 54.68822,
        "lng": 25.289
      }
    },
    {
      "id": "vln_0445",
      "name": "Ramybės st.",
      "location": {
        "lat": 54.67203,
        "lng": 25.29905
      }
    },
    {
      "id": "vln_0446",
      "name": "Bazilijonų st.",
      "location": {
        "lat": 54.67442,
        "lng": 25.28595
      }
    },
    {
      "id": "vln_0501",
      "name": "Algirdo st.",
      "location": {
        "lat": 54.68197,
        "lng": 25.2682
      }
    },
    {
      "id": "vln_0502",
      "name": "Algirdo st.",
      "location": {
        "lat": 54.68145,
        "lng": 25.2664
      }
    },
    {
      "id": "vln_0503",
      "name": "Mikalojaus Konstantino Čiurlionio st.",
      "location": {
        "lat": 54.68203,
        "lng": 25.26526
      }
    },
    {
      "id": "vln_0504",
      "name": "Mikalojaus Konstantino Čiurlionio st.",
      "location": {
        "lat": 54.68082,
        "lng": 25.26548
      }
    },
    {
      "id": "vln_0505",
      "name": "Mikalojaus Konstantino Čiurlionio st.",
      "location": {
        "lat": 54.6816,
        "lng": 25.26471
      }
    },
    {
      "id": "vln_0506",
      "name": "Simono Konarskio st.",
      "location": {
        "lat": 54.67947,
        "lng": 25.25932
      }
    },
    {
      "id": "vln_0507",
      "name": "Simono Konarskio st.",
      "location": {
        "lat": 54.67986,
        "lng": 25.25964
      }
    },
    {
      "id": "vln_0508",
      "name": "Vingis",
      "location": {
        "lat": 54.67754,
        "lng": 25.25555
      }
    },
    {
      "id": "vln_0509",
      "name": "Vingis",
      "location": {
        "lat": 54.67719,
        "lng": 25.25438
      }
    },
    {
      "id": "vln_0510",
      "name": "Taraso Ševčenkos st.",
      "location": {
        "lat": 54.67869,
        "lng": 25.26718
      }
    },
    {
      "id": "vln_0511",
      "name": "Taraso Ševčenkos st.",
      "location": {
        "lat": 54.67694,
        "lng": 25.26749
      }
    },
    {
      "id": "vln_0512",
      "name": "Švitrigailos st.",
      "location": {
        "lat": 54.67424,
        "lng": 25.26792
      }
    },
    {
      "id": "vln_0513",
      "name": "Vytenio st.",
      "location": {
        "lat": 54.67342,
        "lng": 25.26607
      }
    },
    {
      "id": "vln_0514",
      "name": "Vytenio st.",
      "location": {
        "lat": 54.67185,
        "lng": 25.26233
      }
    },
    {
      "id": "vln_0515",
      "name": "Statybininkų st.",
      "location": {
        "lat": 54.67274,
        "lng": 25.25565
      }
    },
    {
      "id": "vln_0516",
      "name": "Naugarduko st.",
      "location": {
        "lat": 54.67042,
        "lng": 25.25985
      }
    },
    {
      "id": "vln_0517",
      "name": "Naujamiestis",
      "location": {
        "lat": 54.67043,
        "lng": 25.26121
      }
    },
    {
      "id": "vln_0518",
      "name": "Naujamiestis",
      "location": {
        "lat": 54.67049,
        "lng": 25.2626
      }
    },
    {
      "id": "vln_0519",
      "name": "„Sparta“",
      "location": {
        "lat": 54.6718,
        "lng": 25.26847
      }
    },
    {
      "id": "vln_0520",
      "name": "„Sparta“",
      "location": {
        "lat": 54.67262,
        "lng": 25.26932
      }
    },
    {
      "id": "vln_0521",
      "name": "„Sparta“",
      "location": {
        "lat": 54.67191,
        "lng": 25.27022
      }
    },
    {
      "id": "vln_0522a",
      "name": "„Sparta“",
      "location": {
        "lat": 54.67111,
        "lng": 25.26955
      }
    },
    {
      "id": "vln_0523",
      "name": "„Lelija“",
      "location": {
        "lat": 54.66815,
        "lng": 25.26369
      }
    },
    {
      "id": "vln_0525",
      "name": "Smolensko st.",
      "location": {
        "lat": 54.66742,
        "lng": 25.26005
      }
    },
    {
      "id": "vln_0526",
      "name": "Smolensko st.",
      "location": {
        "lat": 54.66714,
        "lng": 25.25911
      }
    },
    {
      "id": "vln_0527",
      "name": "Burbiškės",
      "location": {
        "lat": 54.66671,
        "lng": 25.2531
      }
    },
    {
      "id": "vln_0528",
      "name": "Pelesos st.",
      "location": {
        "lat": 54.67085,
        "lng": 25.28921
      }
    },
    {
      "id": "vln_0529",
      "name": "Panevėžio st.",
      "location": {
        "lat": 54.66793,
        "lng": 25.28368
      }
    },
    {
      "id": "vln_0530a",
      "name": "Stotis (A)",
      "location": {
        "lat": 54.67071,
        "lng": 25.2849
      }
    },
    {
      "id": "vln_0530b",
      "name": "Stotis (B)",
      "location": {
        "lat": 54.6711,
        "lng": 25.28443
      }
    },
    {
      "id": "vln_0530c",
      "name": "Stotis (C)",
      "location": {
        "lat": 54.67108,
        "lng": 25.2842
      }
    },
    {
      "id": "vln_0530d",
      "name": "Stotis (D)",
      "location": {
        "lat": 54.67106,
        "lng": 25.28399
      }
    },
    {
      "id": "vln_0530e",
      "name": "Stotis (E)",
      "location": {
        "lat": 54.67147,
        "lng": 25.28327
      }
    },
    {
      "id": "vln_0530f",
      "name": "Stotis (F)",
      "location": {
        "lat": 54.67115,
        "lng": 25.28328
      }
    },
    {
      "id": "vln_0530h",
      "name": "Stotis (H)",
      "location": {
        "lat": 54.67085,
        "lng": 25.28336
      }
    },
    {
      "id": "vln_0530i",
      "name": "Stotis (I)",
      "location": {
        "lat": 54.67077,
        "lng": 25.28326
      }
    },
    {
      "id": "vln_0530j",
      "name": "Stotis (J)",
      "location": {
        "lat": 54.67066,
        "lng": 25.28313
      }
    },
    {
      "id": "vln_0530k",
      "name": "Stotis (K)",
      "location": {
        "lat": 54.67025,
        "lng": 25.28349
      }
    },
    {
      "id": "vln_0530p",
      "name": "Stotis (P)",
      "location": {
        "lat": 54.67115,
        "lng": 25.28513
      }
    },
    {
      "id": "vln_0531",
      "name": "„Lelija“",
      "location": {
        "lat": 54.66967,
        "lng": 25.26711
      }
    },
    {
      "id": "vln_0535",
      "name": "Migracijos departamentas",
      "location": {
        "lat": 54.66983,
        "lng": 25.25833
      }
    },
    {
      "id": "vln_0536",
      "name": "Migracijos departamentas",
      "location": {
        "lat": 54.66815,
        "lng": 25.2557
      }
    },
    {
      "id": "vln_0546",
      "name": "Stotis",
      "location": {
        "lat": 54.6714,
        "lng": 25.283
      }
    },
    {
      "id": "vln_0547",
      "name": "Stotis",
      "location": {
        "lat": 54.67191,
        "lng": 25.28338
      }
    },
    {
      "id": "vln_0601",
      "name": "Žemaitės st.",
      "location": {
        "lat": 54.67489,
        "lng": 25.25194
      }
    },
    {
      "id": "vln_0602a",
      "name": "Savanorių prospektas",
      "location": {
        "lat": 54.67403,
        "lng": 25.2486
      }
    },
    {
      "id": "vln_0603",
      "name": "Savanorių prospektas",
      "location": {
        "lat": 54.6734,
        "lng": 25.247
      }
    },
    {
      "id": "vln_0606",
      "name": "Gerosios Vilties st.",
      "location": {
        "lat": 54.6708,
        "lng": 25.24196
      }
    },
    {
      "id": "vln_0607",
      "name": "Gerosios Vilties st.",
      "location": {
        "lat": 54.6704,
        "lng": 25.24159
      }
    },
    {
      "id": "vln_0608",
      "name": "Eigulių st.",
      "location": {
        "lat": 54.66935,
        "lng": 25.23571
      }
    },
    {
      "id": "vln_0609",
      "name": "Vingio parkas",
      "location": {
        "lat": 54.6728,
        "lng": 25.23943
      }
    },
    {
      "id": "vln_0610",
      "name": "Vingio parkas",
      "location": {
        "lat": 54.67405,
        "lng": 25.24199
      }
    },
    {
      "id": "vln_0611",
      "name": "Vinco Pietario st.",
      "location": {
        "lat": 54.67688,
        "lng": 25.24579
      }
    },
    {
      "id": "vln_0612",
      "name": "Statybininkų st.",
      "location": {
        "lat": 54.67135,
        "lng": 25.25735
      }
    },
    {
      "id": "vln_0701",
      "name": "Linkmenų st.",
      "location": {
        "lat": 54.70487,
        "lng": 25.26979
      }
    },
    {
      "id": "vln_0702",
      "name": "Linkmenų st.",
      "location": {
        "lat": 54.70453,
        "lng": 25.27236
      }
    },
    {
      "id": "vln_0703",
      "name": "Kalvarijų turgus",
      "location": {
        "lat": 54.69931,
        "lng": 25.28249
      }
    },
    {
      "id": "vln_0704",
      "name": "Kalvarijų turgus",
      "location": {
        "lat": 54.70019,
        "lng": 25.28301
      }
    },
    {
      "id": "vln_0705",
      "name": "Žalgirio st.",
      "location": {
        "lat": 54.70308,
        "lng": 25.28353
      }
    },
    {
      "id": "vln_0706",
      "name": "Žalgirio st.",
      "location": {
        "lat": 54.7039,
        "lng": 25.28302
      }
    },
    {
      "id": "vln_0707",
      "name": "Giedraičių st.",
      "location": {
        "lat": 54.70734,
        "lng": 25.28494
      }
    },
    {
      "id": "vln_0708",
      "name": "Tauragnų st.",
      "location": {
        "lat": 54.71169,
        "lng": 25.28625
      }
    },
    {
      "id": "vln_0709",
      "name": "Pramogų arena",
      "location": {
        "lat": 54.71448,
        "lng": 25.28664
      }
    },
    {
      "id": "vln_0710",
      "name": "Licėjus",
      "location": {
        "lat": 54.713049516312,
        "lng": 25.278972562907597
      }
    },
    {
      "id": "vln_0711",
      "name": "Žalgirio st.",
      "location": {
        "lat": 54.70378,
        "lng": 25.28221
      }
    },
    {
      "id": "vln_0801",
      "name": "Jono Kazlausko st.",
      "location": {
        "lat": 54.72241,
        "lng": 25.28381
      }
    },
    {
      "id": "vln_0802",
      "name": "Pramogų arena",
      "location": {
        "lat": 54.71626,
        "lng": 25.28694
      }
    },
    {
      "id": "vln_0803",
      "name": "Tauragnų st.",
      "location": {
        "lat": 54.71234,
        "lng": 25.28672
      }
    },
    {
      "id": "vln_0804",
      "name": "Pramogų arena",
      "location": {
        "lat": 54.71504,
        "lng": 25.28821
      }
    },
    {
      "id": "vln_0805",
      "name": "Pramogų arena",
      "location": {
        "lat": 54.71556,
        "lng": 25.28943
      }
    },
    {
      "id": "vln_0806",
      "name": "Verkių st.",
      "location": {
        "lat": 54.71732,
        "lng": 25.29562
      }
    },
    {
      "id": "vln_0807",
      "name": "Verkių st.",
      "location": {
        "lat": 54.71687,
        "lng": 25.2936
      }
    },
    {
      "id": "vln_0808",
      "name": "Kareivių st.",
      "location": {
        "lat": 54.71989,
        "lng": 25.30161
      }
    },
    {
      "id": "vln_0810",
      "name": "Kareivių st.",
      "location": {
        "lat": 54.71859,
        "lng": 25.30393
      }
    },
    {
      "id": "vln_0811",
      "name": "Kareivių st.",
      "location": {
        "lat": 54.71934,
        "lng": 25.30356
      }
    },
    {
      "id": "vln_0814",
      "name": "Žirmūnų seniūnija",
      "location": {
        "lat": 54.7219,
        "lng": 25.30071
      }
    },
    {
      "id": "vln_0815",
      "name": "Žirmūnų seniūnija",
      "location": {
        "lat": 54.72236,
        "lng": 25.29994
      }
    },
    {
      "id": "vln_0816",
      "name": "Šaltinėlio st.",
      "location": {
        "lat": 54.72541,
        "lng": 25.29826
      }
    },
    {
      "id": "vln_0817",
      "name": "Šaltinėlio st.",
      "location": {
        "lat": 54.72657,
        "lng": 25.29674
      }
    },
    {
      "id": "vln_0818",
      "name": "Žirmūnų  žiedas",
      "location": {
        "lat": 54.72666,
        "lng": 25.2971
      }
    },
    {
      "id": "vln_0819",
      "name": "Valakampių tiltas",
      "location": {
        "lat": 54.72356,
        "lng": 25.30725
      }
    },
    {
      "id": "vln_0820",
      "name": "Valakampių tiltas",
      "location": {
        "lat": 54.72409,
        "lng": 25.30849
      }
    },
    {
      "id": "vln_0821",
      "name": "Žirmūnai",
      "location": {
        "lat": 54.71666,
        "lng": 25.30545
      }
    },
    {
      "id": "vln_0822",
      "name": "Žirmūnai",
      "location": {
        "lat": 54.71595,
        "lng": 25.30509
      }
    },
    {
      "id": "vln_0823",
      "name": "Verkių st.",
      "location": {
        "lat": 54.71843,
        "lng": 25.29553
      }
    },
    {
      "id": "vln_0825",
      "name": "Ozo žiedas",
      "location": {
        "lat": 54.71465,
        "lng": 25.2777
      }
    },
    {
      "id": "vln_0827",
      "name": "Ozo žiedas",
      "location": {
        "lat": 54.71550266295418,
        "lng": 25.277917869523776
      }
    },
    {
      "id": "vln_0901",
      "name": "Šiaurės miestelis",
      "location": {
        "lat": 54.71182,
        "lng": 25.30509
      }
    },
    {
      "id": "vln_0902",
      "name": "Šiaurės miestelis",
      "location": {
        "lat": 54.71083,
        "lng": 25.30465
      }
    },
    {
      "id": "vln_0903",
      "name": "Minties st.",
      "location": {
        "lat": 54.70418,
        "lng": 25.30454
      }
    },
    {
      "id": "vln_0904",
      "name": "Minties st.",
      "location": {
        "lat": 54.70362,
        "lng": 25.30416
      }
    },
    {
      "id": "vln_0905",
      "name": "Tuskulėnų rimties parkas",
      "location": {
        "lat": 54.69823,
        "lng": 25.3013
      }
    },
    {
      "id": "vln_0906",
      "name": "Tuskulėnų rimties parkas",
      "location": {
        "lat": 54.69757,
        "lng": 25.30032
      }
    },
    {
      "id": "vln_0907",
      "name": "Rinktinės st.",
      "location": {
        "lat": 54.69497,
        "lng": 25.28955
      }
    },
    {
      "id": "vln_0908",
      "name": "Šeimyniškių st.",
      "location": {
        "lat": 54.69566,
        "lng": 25.29616
      }
    },
    {
      "id": "vln_0909",
      "name": "Tuskulėnai",
      "location": {
        "lat": 54.69702,
        "lng": 25.29706
      }
    },
    {
      "id": "vln_0910",
      "name": "Tuskulėnai",
      "location": {
        "lat": 54.6977,
        "lng": 25.2967
      }
    },
    {
      "id": "vln_0911",
      "name": "Mikalojaus Katkaus st.",
      "location": {
        "lat": 54.70009,
        "lng": 25.2929
      }
    },
    {
      "id": "vln_0912",
      "name": "Mikalojaus Katkaus st.",
      "location": {
        "lat": 54.70078,
        "lng": 25.29246
      }
    },
    {
      "id": "vln_0913",
      "name": "Trimitų st.",
      "location": {
        "lat": 54.70295,
        "lng": 25.28893
      }
    },
    {
      "id": "vln_0914",
      "name": "Broniaus Laurinavičiaus skveras",
      "location": {
        "lat": 54.70419,
        "lng": 25.28405
      }
    },
    {
      "id": "vln_0915",
      "name": "Žalgirio st.",
      "location": {
        "lat": 54.70436,
        "lng": 25.28434
      }
    },
    {
      "id": "vln_0916",
      "name": "Giedraičių st.",
      "location": {
        "lat": 54.70804,
        "lng": 25.2855
      }
    },
    {
      "id": "vln_0917",
      "name": "Apkasų st.",
      "location": {
        "lat": 54.70394,
        "lng": 25.29142
      }
    },
    {
      "id": "vln_0918",
      "name": "Apkasų st.",
      "location": {
        "lat": 54.70393,
        "lng": 25.2927
      }
    },
    {
      "id": "vln_0919",
      "name": "Minties st.",
      "location": {
        "lat": 54.70507,
        "lng": 25.29864
      }
    },
    {
      "id": "vln_0920",
      "name": "Minties st.",
      "location": {
        "lat": 54.70506,
        "lng": 25.29968
      }
    },
    {
      "id": "vln_0921",
      "name": "Povilo Lukšio st.",
      "location": {
        "lat": 54.71072,
        "lng": 25.30239
      }
    },
    {
      "id": "vln_0922",
      "name": "Šiaurės miestelis",
      "location": {
        "lat": 54.71139,
        "lng": 25.30392
      }
    },
    {
      "id": "vln_0924",
      "name": "Šiaurės miestelis",
      "location": {
        "lat": 54.71152,
        "lng": 25.29786
      }
    },
    {
      "id": "vln_0925",
      "name": "Šiaurės miestelis",
      "location": {
        "lat": 54.71119,
        "lng": 25.29938
      }
    },
    {
      "id": "vln_0926",
      "name": "Jono Galvydžio st.",
      "location": {
        "lat": 54.71183,
        "lng": 25.29233
      }
    },
    {
      "id": "vln_0927",
      "name": "Ulonų st.",
      "location": {
        "lat": 54.70889,
        "lng": 25.29121
      }
    },
    {
      "id": "vln_0928",
      "name": "Ulonų st.",
      "location": {
        "lat": 54.70921,
        "lng": 25.291
      }
    },
    {
      "id": "vln_0929",
      "name": "Povilo Lukšio st.",
      "location": {
        "lat": 54.71097,
        "lng": 25.30067
      }
    },
    {
      "id": "vln_1001",
      "name": "Saulėtekis",
      "location": {
        "lat": 54.72624,
        "lng": 25.32752
      }
    },
    {
      "id": "vln_1002",
      "name": "Gedimino technikos universitetas",
      "location": {
        "lat": 54.72412,
        "lng": 25.33451
      }
    },
    {
      "id": "vln_1003",
      "name": "Gedimino technikos universitetas",
      "location": {
        "lat": 54.72385,
        "lng": 25.33566
      }
    },
    {
      "id": "vln_1004",
      "name": "Senoji plytinė",
      "location": {
        "lat": 54.72403,
        "lng": 25.33967
      }
    },
    {
      "id": "vln_1005",
      "name": "Senoji plytinė",
      "location": {
        "lat": 54.72416,
        "lng": 25.34075
      }
    },
    {
      "id": "vln_1006",
      "name": "Plytinės st.",
      "location": {
        "lat": 54.72762,
        "lng": 25.34671
      }
    },
    {
      "id": "vln_1007",
      "name": "Plytinės st.",
      "location": {
        "lat": 54.72791,
        "lng": 25.34778
      }
    },
    {
      "id": "vln_1008",
      "name": "Aukštagiris",
      "location": {
        "lat": 54.73057,
        "lng": 25.35661
      }
    },
    {
      "id": "vln_1009",
      "name": "Dvarčionių kryžkelė",
      "location": {
        "lat": 54.73347,
        "lng": 25.370730000000002
      }
    },
    {
      "id": "vln_1011",
      "name": "Dvarčionys",
      "location": {
        "lat": 54.72972,
        "lng": 25.37052
      }
    },
    {
      "id": "vln_1012",
      "name": "Lazerių st.",
      "location": {
        "lat": 54.72949,
        "lng": 25.37465
      }
    },
    {
      "id": "vln_1013",
      "name": "Lazerių st.",
      "location": {
        "lat": 54.72956,
        "lng": 25.37489
      }
    },
    {
      "id": "vln_1014",
      "name": "Baniškės",
      "location": {
        "lat": 54.73453,
        "lng": 25.38833
      }
    },
    {
      "id": "vln_1015",
      "name": "Kairėnai",
      "location": {
        "lat": 54.73646,
        "lng": 25.40379
      }
    },
    {
      "id": "vln_1016",
      "name": "Paliuliškės",
      "location": {
        "lat": 54.73365,
        "lng": 25.41033
      }
    },
    {
      "id": "vln_1017",
      "name": "Paliuliškės",
      "location": {
        "lat": 54.73289,
        "lng": 25.41104
      }
    },
    {
      "id": "vln_1018",
      "name": "Lubinų st.",
      "location": {
        "lat": 54.72976,
        "lng": 25.41224
      }
    },
    {
      "id": "vln_1020",
      "name": "Vakario st.",
      "location": {
        "lat": 54.71359,
        "lng": 25.4124
      }
    },
    {
      "id": "vln_1021",
      "name": "Saulėtekis",
      "location": {
        "lat": 54.72719,
        "lng": 25.32671
      }
    },
    {
      "id": "vln_1022",
      "name": "Vilniaus universitetas",
      "location": {
        "lat": 54.72489,
        "lng": 25.33134
      }
    },
    {
      "id": "vln_1023",
      "name": "Vilniaus universitetas",
      "location": {
        "lat": 54.72454,
        "lng": 25.33199
      }
    },
    {
      "id": "vln_1024",
      "name": "Lubinų st.",
      "location": {
        "lat": 54.72872,
        "lng": 25.41181
      }
    },
    {
      "id": "vln_1025",
      "name": "Purienų st.",
      "location": {
        "lat": 54.72488,
        "lng": 25.412
      }
    },
    {
      "id": "vln_1026",
      "name": "Dvarčionys",
      "location": {
        "lat": 54.72986,
        "lng": 25.37033
      }
    },
    {
      "id": "vln_1027",
      "name": "Lazerių st.",
      "location": {
        "lat": 54.72937,
        "lng": 25.37476
      }
    },
    {
      "id": "vln_1029",
      "name": "Kairėnai",
      "location": {
        "lat": 54.73719,
        "lng": 25.40245
      }
    },
    {
      "id": "vln_1030",
      "name": "Klonio st.",
      "location": {
        "lat": 54.70586,
        "lng": 25.37112
      }
    },
    {
      "id": "vln_1031",
      "name": "Klonio st.",
      "location": {
        "lat": 54.70582,
        "lng": 25.371
      }
    },
    {
      "id": "vln_1032",
      "name": "Juodvarnių st.",
      "location": {
        "lat": 54.72255,
        "lng": 25.37632
      }
    },
    {
      "id": "vln_1033",
      "name": "Juodvarnių st.",
      "location": {
        "lat": 54.72228,
        "lng": 25.37637
      }
    },
    {
      "id": "vln_1034",
      "name": "Stanislovo Kerbedžio st.",
      "location": {
        "lat": 54.72065,
        "lng": 25.37415
      }
    },
    {
      "id": "vln_1036",
      "name": "Stanislovo Kerbedžio st.",
      "location": {
        "lat": 54.72063,
        "lng": 25.37309
      }
    },
    {
      "id": "vln_1038",
      "name": "Stepono Kairio st.",
      "location": {
        "lat": 54.72085,
        "lng": 25.37036
      }
    },
    {
      "id": "vln_1039",
      "name": "Stepono Kairio st.",
      "location": {
        "lat": 54.72081,
        "lng": 25.36923
      }
    },
    {
      "id": "vln_1040",
      "name": "Moliakalnio st.",
      "location": {
        "lat": 54.71583,
        "lng": 25.35519
      }
    },
    {
      "id": "vln_1042",
      "name": "Moliakalnio st.",
      "location": {
        "lat": 54.71578,
        "lng": 25.35526
      }
    },
    {
      "id": "vln_1043",
      "name": "Pylimėliai",
      "location": {
        "lat": 54.71888,
        "lng": 25.35994
      }
    },
    {
      "id": "vln_1045",
      "name": "Pylimėliai",
      "location": {
        "lat": 54.71845,
        "lng": 25.35947
      }
    },
    {
      "id": "vln_1046",
      "name": "Duburio st.",
      "location": {
        "lat": 54.70728,
        "lng": 25.39168
      }
    },
    {
      "id": "vln_1047",
      "name": "Sapieginės miškas",
      "location": {
        "lat": 54.71025,
        "lng": 25.35687
      }
    },
    {
      "id": "vln_1048",
      "name": "Sapieginės miškas",
      "location": {
        "lat": 54.70983,
        "lng": 25.35769
      }
    },
    {
      "id": "vln_1049",
      "name": "Duburio st.",
      "location": {
        "lat": 54.70731,
        "lng": 25.39033
      }
    },
    {
      "id": "vln_1101",
      "name": "Krivių st.",
      "location": {
        "lat": 54.68802,
        "lng": 25.30531
      }
    },
    {
      "id": "vln_1102",
      "name": "Vasaros st.",
      "location": {
        "lat": 54.69122,
        "lng": 25.30503
      }
    },
    {
      "id": "vln_1103",
      "name": "Leono Sapiegos st.",
      "location": {
        "lat": 54.6963,
        "lng": 25.30809
      }
    },
    {
      "id": "vln_1104",
      "name": "Leono Sapiegos st.",
      "location": {
        "lat": 54.69697,
        "lng": 25.30873
      }
    },
    {
      "id": "vln_1105",
      "name": "Petro Vileišio st.",
      "location": {
        "lat": 54.70165,
        "lng": 25.30922
      }
    },
    {
      "id": "vln_1106",
      "name": "Petro Vileišio st.",
      "location": {
        "lat": 54.70313,
        "lng": 25.31002
      }
    },
    {
      "id": "vln_1107",
      "name": "Šilo tiltas",
      "location": {
        "lat": 54.70447,
        "lng": 25.31024
      }
    },
    {
      "id": "vln_1108",
      "name": "Šilo tiltas",
      "location": {
        "lat": 54.70545,
        "lng": 25.31096
      }
    },
    {
      "id": "vln_1109",
      "name": "Klinikų st.",
      "location": {
        "lat": 54.71058,
        "lng": 25.31437
      }
    },
    {
      "id": "vln_1110",
      "name": "Klinikų st.",
      "location": {
        "lat": 54.71125,
        "lng": 25.31486
      }
    },
    {
      "id": "vln_1111",
      "name": "Klinikų st.",
      "location": {
        "lat": 54.71134,
        "lng": 25.31669
      }
    },
    {
      "id": "vln_1112",
      "name": "Klinikų st.",
      "location": {
        "lat": 54.71161,
        "lng": 25.31573
      }
    },
    {
      "id": "vln_1113",
      "name": "Tverečiaus st.",
      "location": {
        "lat": 54.71619,
        "lng": 25.31646
      }
    },
    {
      "id": "vln_1114",
      "name": "Tverečiaus st.",
      "location": {
        "lat": 54.7175,
        "lng": 25.31659
      }
    },
    {
      "id": "vln_1115",
      "name": "Antakalnis",
      "location": {
        "lat": 54.7196,
        "lng": 25.31724
      }
    },
    {
      "id": "vln_1116",
      "name": "Antakalnis",
      "location": {
        "lat": 54.72106,
        "lng": 25.31821
      }
    },
    {
      "id": "vln_1117",
      "name": "Nemenčinės plentas",
      "location": {
        "lat": 54.72385,
        "lng": 25.32007
      }
    },
    {
      "id": "vln_1118",
      "name": "Antakalnio žiedas",
      "location": {
        "lat": 54.72291,
        "lng": 25.31872
      }
    },
    {
      "id": "vln_1118a",
      "name": "Antakalnio žiedas",
      "location": {
        "lat": 54.72232,
        "lng": 25.31887
      }
    },
    {
      "id": "vln_1118c",
      "name": "Antakalnio žiedas",
      "location": {
        "lat": 54.72274,
        "lng": 25.31912
      }
    },
    {
      "id": "vln_1119",
      "name": "Nemenčinės plentas",
      "location": {
        "lat": 54.72278,
        "lng": 25.32004
      }
    },
    {
      "id": "vln_1121",
      "name": "Lizdeikos st.",
      "location": {
        "lat": 54.72728,
        "lng": 25.31552
      }
    },
    {
      "id": "vln_1122",
      "name": "Saulėtekis",
      "location": {
        "lat": 54.72622,
        "lng": 25.32482
      }
    },
    {
      "id": "vln_1123",
      "name": "Lakštingalų st.",
      "location": {
        "lat": 54.7288,
        "lng": 25.32883
      }
    },
    {
      "id": "vln_1125",
      "name": "Žolyno st.",
      "location": {
        "lat": 54.70782,
        "lng": 25.33847
      }
    },
    {
      "id": "vln_1129",
      "name": "Šilo tiltas",
      "location": {
        "lat": 54.70519,
        "lng": 25.31007
      }
    },
    {
      "id": "vln_1130",
      "name": "Bistryčios st.",
      "location": {
        "lat": 54.70834,
        "lng": 25.32978
      }
    },
    {
      "id": "vln_1131",
      "name": "Bistryčios st.",
      "location": {
        "lat": 54.70839,
        "lng": 25.32956
      }
    },
    {
      "id": "vln_1132",
      "name": "Lizdeikos st.",
      "location": {
        "lat": 54.7272,
        "lng": 25.31625
      }
    },
    {
      "id": "vln_1136",
      "name": "Vieversių st.",
      "location": {
        "lat": 54.71065,
        "lng": 25.32032
      }
    },
    {
      "id": "vln_1137",
      "name": "Vieversių st.",
      "location": {
        "lat": 54.70983,
        "lng": 25.32257
      }
    },
    {
      "id": "vln_1201",
      "name": "Zarasų st.",
      "location": {
        "lat": 54.67624,
        "lng": 25.3104
      }
    },
    {
      "id": "vln_1202",
      "name": "Zarasų st.",
      "location": {
        "lat": 54.67658,
        "lng": 25.3094
      }
    },
    {
      "id": "vln_1203",
      "name": "Zarasų st.",
      "location": {
        "lat": 54.67669,
        "lng": 25.31012
      }
    },
    {
      "id": "vln_1204",
      "name": "Vilnelės st.",
      "location": {
        "lat": 54.67465,
        "lng": 25.31948
      }
    },
    {
      "id": "vln_1205",
      "name": "Vilnelės st.",
      "location": {
        "lat": 54.6749,
        "lng": 25.31879
      }
    },
    {
      "id": "vln_1206",
      "name": "Markučiai",
      "location": {
        "lat": 54.67437,
        "lng": 25.32209
      }
    },
    {
      "id": "vln_1207",
      "name": "Drujos st.",
      "location": {
        "lat": 54.67878,
        "lng": 25.31164
      }
    },
    {
      "id": "vln_1208",
      "name": "Srovės st.",
      "location": {
        "lat": 54.68188,
        "lng": 25.31555
      }
    },
    {
      "id": "vln_1209",
      "name": "Polocko st.",
      "location": {
        "lat": 54.68331,
        "lng": 25.31286
      }
    },
    {
      "id": "vln_1210",
      "name": "Filaretų st.",
      "location": {
        "lat": 54.68532,
        "lng": 25.30853
      }
    },
    {
      "id": "vln_1211",
      "name": "Belmontas",
      "location": {
        "lat": 54.68379,
        "lng": 25.3194
      }
    },
    {
      "id": "vln_1212",
      "name": "Rudens st.",
      "location": {
        "lat": 54.68599,
        "lng": 25.32358
      }
    },
    {
      "id": "vln_1213",
      "name": "Rudens st.",
      "location": {
        "lat": 54.6864,
        "lng": 25.32505
      }
    },
    {
      "id": "vln_1214",
      "name": "Šaudykla",
      "location": {
        "lat": 54.68899,
        "lng": 25.33066
      }
    },
    {
      "id": "vln_1215",
      "name": "Šaudykla",
      "location": {
        "lat": 54.68902,
        "lng": 25.33243
      }
    },
    {
      "id": "vln_1216",
      "name": "Mildos st.",
      "location": {
        "lat": 54.69162,
        "lng": 25.34337
      }
    },
    {
      "id": "vln_1217",
      "name": "Belmontas",
      "location": {
        "lat": 54.68403,
        "lng": 25.32038
      }
    },
    {
      "id": "vln_1218",
      "name": "Markučiai",
      "location": {
        "lat": 54.6743,
        "lng": 25.32268
      }
    },
    {
      "id": "vln_1301",
      "name": "Pelesos st.",
      "location": {
        "lat": 54.67091,
        "lng": 25.28961
      }
    },
    {
      "id": "vln_1302",
      "name": "Pelesos st.",
      "location": {
        "lat": 54.67108,
        "lng": 25.29127
      }
    },
    {
      "id": "vln_1303",
      "name": "Pelesos st.",
      "location": {
        "lat": 54.6714,
        "lng": 25.29175
      }
    },
    {
      "id": "vln_1304",
      "name": "Stadionas",
      "location": {
        "lat": 54.66848,
        "lng": 25.29639
      }
    },
    {
      "id": "vln_1305",
      "name": "Stadionas",
      "location": {
        "lat": 54.66756,
        "lng": 25.2971
      }
    },
    {
      "id": "vln_1306",
      "name": "Rasų kapinės",
      "location": {
        "lat": 54.67046,
        "lng": 25.30109
      }
    },
    {
      "id": "vln_1307",
      "name": "Rasų kapinės",
      "location": {
        "lat": 54.67002,
        "lng": 25.30118
      }
    },
    {
      "id": "vln_1308",
      "name": "Dunojaus st.",
      "location": {
        "lat": 54.66661,
        "lng": 25.30673
      }
    },
    {
      "id": "vln_1309",
      "name": "Dunojaus st.",
      "location": {
        "lat": 54.66644,
        "lng": 25.30701
      }
    },
    {
      "id": "vln_1310",
      "name": "Ribiškės",
      "location": {
        "lat": 54.66687,
        "lng": 25.3126
      }
    },
    {
      "id": "vln_1311",
      "name": "Ribiškės",
      "location": {
        "lat": 54.66684,
        "lng": 25.31329
      }
    },
    {
      "id": "vln_1312",
      "name": "Juodasis kelias",
      "location": {
        "lat": 54.66648,
        "lng": 25.3246
      }
    },
    {
      "id": "vln_1313",
      "name": "Juodasis kelias",
      "location": {
        "lat": 54.66634,
        "lng": 25.32542
      }
    },
    {
      "id": "vln_1314",
      "name": "Žirnių st.",
      "location": {
        "lat": 54.65485,
        "lng": 25.30304
      }
    },
    {
      "id": "vln_1315",
      "name": "Liepkalnis",
      "location": {
        "lat": 54.66298,
        "lng": 25.30015
      }
    },
    {
      "id": "vln_1316",
      "name": "Liepkalnis",
      "location": {
        "lat": 54.66287,
        "lng": 25.29995
      }
    },
    {
      "id": "vln_1317",
      "name": "Perlojos st.",
      "location": {
        "lat": 54.66464,
        "lng": 25.29225
      }
    },
    {
      "id": "vln_1318",
      "name": "Balstogės st.",
      "location": {
        "lat": 54.67221,
        "lng": 25.30501
      }
    },
    {
      "id": "vln_1319",
      "name": "Balstogės st.",
      "location": {
        "lat": 54.67137,
        "lng": 25.30457
      }
    },
    {
      "id": "vln_1401",
      "name": "Guriai",
      "location": {
        "lat": 54.66285,
        "lng": 25.34007
      }
    },
    {
      "id": "vln_1402",
      "name": "Guriai",
      "location": {
        "lat": 54.66331,
        "lng": 25.34187
      }
    },
    {
      "id": "vln_1403",
      "name": "Pavilnio sodai",
      "location": {
        "lat": 54.66494,
        "lng": 25.34565
      }
    },
    {
      "id": "vln_1404",
      "name": "Pavilnio sodai",
      "location": {
        "lat": 54.66501,
        "lng": 25.34655
      }
    },
    {
      "id": "vln_1405",
      "name": "Garsioji st.",
      "location": {
        "lat": 54.66689,
        "lng": 25.35356
      }
    },
    {
      "id": "vln_1406",
      "name": "Garsioji st.",
      "location": {
        "lat": 54.66692,
        "lng": 25.35541
      }
    },
    {
      "id": "vln_1407",
      "name": "Grūdų st.",
      "location": {
        "lat": 54.66794,
        "lng": 25.35941
      }
    },
    {
      "id": "vln_1408",
      "name": "Grūdų st.",
      "location": {
        "lat": 54.66867,
        "lng": 25.35996
      }
    },
    {
      "id": "vln_1409",
      "name": "Pavilnys",
      "location": {
        "lat": 54.6712,
        "lng": 25.36119
      }
    },
    {
      "id": "vln_1410",
      "name": "Pavilnys",
      "location": {
        "lat": 54.67171,
        "lng": 25.36178
      }
    },
    {
      "id": "vln_1411",
      "name": "Gamtininkų st.",
      "location": {
        "lat": 54.67492,
        "lng": 25.36752
      }
    },
    {
      "id": "vln_1412",
      "name": "Gamtininkų st.",
      "location": {
        "lat": 54.67501,
        "lng": 25.36844
      }
    },
    {
      "id": "vln_1413",
      "name": "Alėja",
      "location": {
        "lat": 54.67721,
        "lng": 25.38291
      }
    },
    {
      "id": "vln_1414",
      "name": "Alėja",
      "location": {
        "lat": 54.67718,
        "lng": 25.38428
      }
    },
    {
      "id": "vln_1415",
      "name": "Strelčiukai",
      "location": {
        "lat": 54.6779,
        "lng": 25.39691
      }
    },
    {
      "id": "vln_1416",
      "name": "Strelčiukai",
      "location": {
        "lat": 54.67783,
        "lng": 25.39869
      }
    },
    {
      "id": "vln_1417",
      "name": "Kinologijos centras",
      "location": {
        "lat": 54.64925,
        "lng": 25.32053
      }
    },
    {
      "id": "vln_1418",
      "name": "Minsko plentas",
      "location": {
        "lat": 54.64501,
        "lng": 25.33736
      }
    },
    {
      "id": "vln_1419",
      "name": "Sodai",
      "location": {
        "lat": 54.64299,
        "lng": 25.34566
      }
    },
    {
      "id": "vln_1420",
      "name": "Nemėžis",
      "location": {
        "lat": 54.64047,
        "lng": 25.35628
      }
    },
    {
      "id": "vln_1421",
      "name": "Žemasis Pavilnys",
      "location": {
        "lat": 54.67924,
        "lng": 25.35934
      }
    },
    {
      "id": "vln_1422",
      "name": "Guriai",
      "location": {
        "lat": 54.66245,
        "lng": 25.34243
      }
    },
    {
      "id": "vln_1423",
      "name": "Pranciškaus Baltraus Šivickio st.",
      "location": {
        "lat": 54.66124,
        "lng": 25.34986
      }
    },
    {
      "id": "vln_1424",
      "name": "Pranciškaus Baltraus Šivickio st.",
      "location": {
        "lat": 54.66132,
        "lng": 25.34958
      }
    },
    {
      "id": "vln_1425",
      "name": "Gurių sodai",
      "location": {
        "lat": 54.65986,
        "lng": 25.35971
      }
    },
    {
      "id": "vln_1426",
      "name": "Gurių sodai",
      "location": {
        "lat": 54.65997,
        "lng": 25.35911
      }
    },
    {
      "id": "vln_1427",
      "name": "Šumsko kryptis",
      "location": {
        "lat": 54.65889,
        "lng": 25.3644
      }
    },
    {
      "id": "vln_1428",
      "name": "Ašmenėlės st.",
      "location": {
        "lat": 54.66035,
        "lng": 25.35536
      }
    },
    {
      "id": "vln_1429",
      "name": "Ašmenėlės st.",
      "location": {
        "lat": 54.66028,
        "lng": 25.35559
      }
    },
    {
      "id": "vln_1430",
      "name": "Žiedų st.",
      "location": {
        "lat": 54.67762,
        "lng": 25.35552
      }
    },
    {
      "id": "vln_1431",
      "name": "Žiedų st.",
      "location": {
        "lat": 54.67737,
        "lng": 25.35472
      }
    },
    {
      "id": "vln_1432",
      "name": "Žemoji st.",
      "location": {
        "lat": 54.67615,
        "lng": 25.35091
      }
    },
    {
      "id": "vln_1433",
      "name": "Žemoji st.",
      "location": {
        "lat": 54.67619,
        "lng": 25.35063
      }
    },
    {
      "id": "vln_1434",
      "name": "Tuputiškės",
      "location": {
        "lat": 54.67649,
        "lng": 25.34376
      }
    },
    {
      "id": "vln_1435",
      "name": "Tuputiškės",
      "location": {
        "lat": 54.67655,
        "lng": 25.34235
      }
    },
    {
      "id": "vln_1436",
      "name": "Pavilnio regioninis parkas",
      "location": {
        "lat": 54.66007,
        "lng": 25.33748
      }
    },
    {
      "id": "vln_1437",
      "name": "Pavilnio regioninis parkas",
      "location": {
        "lat": 54.65995,
        "lng": 25.33723
      }
    },
    {
      "id": "vln_1439",
      "name": "Šumsko kryptis",
      "location": {
        "lat": 54.65934,
        "lng": 25.36306
      }
    },
    {
      "id": "vln_1440",
      "name": "Šumsko kryptis",
      "location": {
        "lat": 54.65884,
        "lng": 25.36494
      }
    },
    {
      "id": "vln_1501",
      "name": "Naujininkai",
      "location": {
        "lat": 54.66084,
        "lng": 25.2732
      }
    },
    {
      "id": "vln_1502",
      "name": "Naujininkai",
      "location": {
        "lat": 54.66275,
        "lng": 25.27418
      }
    },
    {
      "id": "vln_1503",
      "name": "Prūsų st.",
      "location": {
        "lat": 54.66522,
        "lng": 25.27281
      }
    },
    {
      "id": "vln_1504",
      "name": "Prūsų st.",
      "location": {
        "lat": 54.66505,
        "lng": 25.27316
      }
    },
    {
      "id": "vln_1505",
      "name": "Dzūkų st.",
      "location": {
        "lat": 54.66528,
        "lng": 25.27651
      }
    },
    {
      "id": "vln_1506",
      "name": "Dzūkų st.",
      "location": {
        "lat": 54.66582,
        "lng": 25.27595
      }
    },
    {
      "id": "vln_1507",
      "name": "Rudaminos st.",
      "location": {
        "lat": 54.66428,
        "lng": 25.28024
      }
    },
    {
      "id": "vln_1508",
      "name": "Rudaminos st.",
      "location": {
        "lat": 54.66463,
        "lng": 25.27975
      }
    },
    {
      "id": "vln_1509",
      "name": "Panevėžio st.",
      "location": {
        "lat": 54.66814,
        "lng": 25.28476
      }
    },
    {
      "id": "vln_1510",
      "name": "Merkinės st.",
      "location": {
        "lat": 54.66417,
        "lng": 25.28719
      }
    },
    {
      "id": "vln_1511",
      "name": "Merkinės st.",
      "location": {
        "lat": 54.66421,
        "lng": 25.28622
      }
    },
    {
      "id": "vln_1512",
      "name": "Perlojos st.",
      "location": {
        "lat": 54.66423,
        "lng": 25.29368
      }
    },
    {
      "id": "vln_1514",
      "name": "Liepkalnis",
      "location": {
        "lat": 54.66285,
        "lng": 25.29885
      }
    },
    {
      "id": "vln_1516",
      "name": "Karaimų kapinės",
      "location": {
        "lat": 54.65535977872884,
        "lng": 25.297278503949116
      }
    },
    {
      "id": "vln_1517",
      "name": "Naujininkai",
      "location": {
        "lat": 54.66237,
        "lng": 25.27409
      }
    },
    {
      "id": "vln_1519",
      "name": "Liepkalnis",
      "location": {
        "lat": 54.66277,
        "lng": 25.29962
      }
    },
    {
      "id": "vln_1520",
      "name": "Vikingų st.",
      "location": {
        "lat": 54.65123,
        "lng": 25.28203
      }
    },
    {
      "id": "vln_1521",
      "name": "Vikingų st.",
      "location": {
        "lat": 54.65183,
        "lng": 25.28255
      }
    },
    {
      "id": "vln_1523",
      "name": "Vikingų slėnis",
      "location": {
        "lat": 54.65304,
        "lng": 25.28045
      }
    },
    {
      "id": "vln_1601",
      "name": "Miškiniai",
      "location": {
        "lat": 54.67119,
        "lng": 25.22725
      }
    },
    {
      "id": "vln_1602",
      "name": "Miškiniai",
      "location": {
        "lat": 54.67093,
        "lng": 25.22641
      }
    },
    {
      "id": "vln_1603",
      "name": "LITEXPO",
      "location": {
        "lat": 54.67561,
        "lng": 25.2225
      }
    },
    {
      "id": "vln_1604",
      "name": "LITEXPO",
      "location": {
        "lat": 54.67577,
        "lng": 25.22186
      }
    },
    {
      "id": "vln_1605",
      "name": "Ąžuolo st.",
      "location": {
        "lat": 54.67934,
        "lng": 25.21701
      }
    },
    {
      "id": "vln_1606",
      "name": "Ąžuolo st.",
      "location": {
        "lat": 54.67994,
        "lng": 25.21765
      }
    },
    {
      "id": "vln_1607",
      "name": "Ryto st.",
      "location": {
        "lat": 54.68215,
        "lng": 25.21371
      }
    },
    {
      "id": "vln_1608",
      "name": "Ryto st.",
      "location": {
        "lat": 54.68268,
        "lng": 25.21309
      }
    },
    {
      "id": "vln_1609",
      "name": "Lazdynai",
      "location": {
        "lat": 54.67891,
        "lng": 25.21331
      }
    },
    {
      "id": "vln_1610",
      "name": "Lazdynai",
      "location": {
        "lat": 54.67926,
        "lng": 25.21329
      }
    },
    {
      "id": "vln_1611",
      "name": "Lazdynai",
      "location": {
        "lat": 54.67778,
        "lng": 25.21233
      }
    },
    {
      "id": "vln_1612",
      "name": "Akacijų st.",
      "location": {
        "lat": 54.67818,
        "lng": 25.20273
      }
    },
    {
      "id": "vln_1613",
      "name": "Akacijų st.",
      "location": {
        "lat": 54.67792,
        "lng": 25.20181
      }
    },
    {
      "id": "vln_1614",
      "name": "Žėručio st.",
      "location": {
        "lat": 54.67642,
        "lng": 25.20696
      }
    },
    {
      "id": "vln_1615",
      "name": "Lazdynų seniūnija",
      "location": {
        "lat": 54.6752,
        "lng": 25.20412
      }
    },
    {
      "id": "vln_1616",
      "name": "Lazdynų seniūnija",
      "location": {
        "lat": 54.67473,
        "lng": 25.20258
      }
    },
    {
      "id": "vln_1617",
      "name": "Erfurto st.",
      "location": {
        "lat": 54.67363,
        "lng": 25.20114
      }
    },
    {
      "id": "vln_1618",
      "name": "Šalnos st.",
      "location": {
        "lat": 54.67281,
        "lng": 25.20703
      }
    },
    {
      "id": "vln_1619",
      "name": "Architektų st.",
      "location": {
        "lat": 54.67343,
        "lng": 25.21451
      }
    },
    {
      "id": "vln_1620",
      "name": "Riešutų st.",
      "location": {
        "lat": 54.67653,
        "lng": 25.21611
      }
    },
    {
      "id": "vln_1622",
      "name": "Oslo st.",
      "location": {
        "lat": 54.67016,
        "lng": 25.19759
      }
    },
    {
      "id": "vln_1624",
      "name": "Lazdynų ligoninė",
      "location": {
        "lat": 54.6705,
        "lng": 25.20809
      }
    },
    {
      "id": "vln_1625",
      "name": "Jonažolių st.",
      "location": {
        "lat": 54.66997,
        "lng": 25.2074
      }
    },
    {
      "id": "vln_1626",
      "name": "Lazdynų ligoninė",
      "location": {
        "lat": 54.67031,
        "lng": 25.20903
      }
    },
    {
      "id": "vln_1627",
      "name": "Jonažolių st.",
      "location": {
        "lat": 54.66985,
        "lng": 25.20846
      }
    },
    {
      "id": "vln_1628",
      "name": "Šiltnamių st.",
      "location": {
        "lat": 54.67106,
        "lng": 25.21418
      }
    },
    {
      "id": "vln_1629",
      "name": "Šiltnamių st.",
      "location": {
        "lat": 54.67091,
        "lng": 25.21492
      }
    },
    {
      "id": "vln_1630",
      "name": "Pakalnučių st.",
      "location": {
        "lat": 54.66911,
        "lng": 25.21298
      }
    },
    {
      "id": "vln_1631",
      "name": "Bijūnų st.",
      "location": {
        "lat": 54.6674,
        "lng": 25.21588
      }
    },
    {
      "id": "vln_1632",
      "name": "Neužmirštuolių st.",
      "location": {
        "lat": 54.65818,
        "lng": 25.20248
      }
    },
    {
      "id": "vln_1633",
      "name": "Neužmirštuolių st.",
      "location": {
        "lat": 54.65845,
        "lng": 25.20379
      }
    },
    {
      "id": "vln_1634",
      "name": "Bukčiai",
      "location": {
        "lat": 54.65501,
        "lng": 25.19563
      }
    },
    {
      "id": "vln_1635",
      "name": "Paukščių takas",
      "location": {
        "lat": 54.68085,
        "lng": 25.20922
      }
    },
    {
      "id": "vln_1636",
      "name": "Paukščių takas",
      "location": {
        "lat": 54.68065,
        "lng": 25.20884
      }
    },
    {
      "id": "vln_1638",
      "name": "Žaros st.",
      "location": {
        "lat": 54.66649,
        "lng": 25.19576
      }
    },
    {
      "id": "vln_1640",
      "name": "Lazdynai",
      "location": {
        "lat": 54.67761,
        "lng": 25.21259
      }
    },
    {
      "id": "vln_1641",
      "name": "Žėručio st.",
      "location": {
        "lat": 54.67661,
        "lng": 25.2084
      }
    },
    {
      "id": "vln_1642",
      "name": "Šalnos st.",
      "location": {
        "lat": 54.67307,
        "lng": 25.20607
      }
    },
    {
      "id": "vln_1643",
      "name": "Architektų st.",
      "location": {
        "lat": 54.67313,
        "lng": 25.21339
      }
    },
    {
      "id": "vln_1645",
      "name": "Riešutų st.",
      "location": {
        "lat": 54.676,
        "lng": 25.21556
      }
    },
    {
      "id": "vln_1646",
      "name": "Paukščių takas",
      "location": {
        "lat": 54.6798,
        "lng": 25.20734
      }
    },
    {
      "id": "vln_1647",
      "name": "Ratilių st.",
      "location": {
        "lat": 54.66525,
        "lng": 25.21435
      }
    },
    {
      "id": "vln_1648",
      "name": "Ratilių st.",
      "location": {
        "lat": 54.66456,
        "lng": 25.21403
      }
    },
    {
      "id": "vln_1649",
      "name": "Užutekio st.",
      "location": {
        "lat": 54.65918,
        "lng": 25.20776
      }
    },
    {
      "id": "vln_1650",
      "name": "Užutekio st.",
      "location": {
        "lat": 54.65907,
        "lng": 25.2074
      }
    },
    {
      "id": "vln_1651",
      "name": "Bijūnų st.",
      "location": {
        "lat": 54.66729,
        "lng": 25.21606
      }
    },
    {
      "id": "vln_1652",
      "name": "Lazdynėliai",
      "location": {
        "lat": 54.66261,
        "lng": 25.19196
      }
    },
    {
      "id": "vln_1653",
      "name": "Oslo st.",
      "location": {
        "lat": 54.67007,
        "lng": 25.19877
      }
    },
    {
      "id": "vln_1654",
      "name": "Monikos Mironaitės st.",
      "location": {
        "lat": 54.68081,
        "lng": 25.18967
      }
    },
    {
      "id": "vln_1655",
      "name": "Gudeliai",
      "location": {
        "lat": 54.67585,
        "lng": 25.19278
      }
    },
    {
      "id": "vln_1656",
      "name": "Gudeliai",
      "location": {
        "lat": 54.67558,
        "lng": 25.19308
      }
    },
    {
      "id": "vln_1657",
      "name": "Monikos Mironaitės st.",
      "location": {
        "lat": 54.68083,
        "lng": 25.1895
      }
    },
    {
      "id": "vln_1659",
      "name": "Šiltnamių žiedas",
      "location": {
        "lat": 54.66708,
        "lng": 25.22145
      }
    },
    {
      "id": "vln_1660",
      "name": "Bijūnų st.",
      "location": {
        "lat": 54.66764,
        "lng": 25.21652
      }
    },
    {
      "id": "vln_1661",
      "name": "Loretos Asanavičiūtės st.",
      "location": {
        "lat": 54.68318,
        "lng": 25.19942
      }
    },
    {
      "id": "vln_1662",
      "name": "Loretos Asanavičiūtės st.",
      "location": {
        "lat": 54.68332,
        "lng": 25.19908
      }
    },
    {
      "id": "vln_1663",
      "name": "Ungurių st.",
      "location": {
        "lat": 54.65354,
        "lng": 25.20851
      }
    },
    {
      "id": "vln_1665",
      "name": "Lazdynų ligoninė",
      "location": {
        "lat": 54.669,
        "lng": 25.20914
      }
    },
    {
      "id": "vln_1702",
      "name": "Laisvės prospektas",
      "location": {
        "lat": 54.69752,
        "lng": 25.22123
      }
    },
    {
      "id": "vln_1703",
      "name": "Laisvės prospektas",
      "location": {
        "lat": 54.69635,
        "lng": 25.21992
      }
    },
    {
      "id": "vln_1704",
      "name": "Karoliniškių poliklinika",
      "location": {
        "lat": 54.69283,
        "lng": 25.21416
      }
    },
    {
      "id": "vln_1705",
      "name": "Karoliniškių poliklinika",
      "location": {
        "lat": 54.69344,
        "lng": 25.21524
      }
    },
    {
      "id": "vln_1706",
      "name": "Karoliniškės",
      "location": {
        "lat": 54.69279,
        "lng": 25.21733
      }
    },
    {
      "id": "vln_1707",
      "name": "Karoliniškės",
      "location": {
        "lat": 54.69244,
        "lng": 25.21631
      }
    },
    {
      "id": "vln_1708",
      "name": "Televizijos bokštas",
      "location": {
        "lat": 54.69092,
        "lng": 25.21486
      }
    },
    {
      "id": "vln_1709",
      "name": "Televizijos bokštas",
      "location": {
        "lat": 54.68996,
        "lng": 25.2126
      }
    },
    {
      "id": "vln_1710",
      "name": "Ugniagesių st.",
      "location": {
        "lat": 54.69021,
        "lng": 25.21068
      }
    },
    {
      "id": "vln_1711",
      "name": "Ugniagesių st.",
      "location": {
        "lat": 54.68951,
        "lng": 25.20904
      }
    },
    {
      "id": "vln_1712",
      "name": "Atminties st.",
      "location": {
        "lat": 54.68715,
        "lng": 25.20713
      }
    },
    {
      "id": "vln_1713",
      "name": "Atminties st.",
      "location": {
        "lat": 54.68674,
        "lng": 25.2065
      }
    },
    {
      "id": "vln_1714",
      "name": "Vaivorykštės st.",
      "location": {
        "lat": 54.68519,
        "lng": 25.20766
      }
    },
    {
      "id": "vln_1715",
      "name": "Vaivorykštės st.",
      "location": {
        "lat": 54.6843,
        "lng": 25.20695
      }
    },
    {
      "id": "vln_1716",
      "name": "Pasakų parkas",
      "location": {
        "lat": 54.68461,
        "lng": 25.20607
      }
    },
    {
      "id": "vln_1717",
      "name": "Pasakų parkas",
      "location": {
        "lat": 54.68477,
        "lng": 25.20559
      }
    },
    {
      "id": "vln_1718",
      "name": "Teodoro Narbuto st.",
      "location": {
        "lat": 54.69995,
        "lng": 25.23016
      }
    },
    {
      "id": "vln_1801",
      "name": "Justiniškės",
      "location": {
        "lat": 54.71676,
        "lng": 25.22203
      }
    },
    {
      "id": "vln_1802",
      "name": "Rygos st.",
      "location": {
        "lat": 54.7156,
        "lng": 25.23019
      }
    },
    {
      "id": "vln_1803",
      "name": "Pal. Jurgio Matulaičio bažnyčia",
      "location": {
        "lat": 54.71178,
        "lng": 25.22678
      }
    },
    {
      "id": "vln_1804",
      "name": "Lūžiai",
      "location": {
        "lat": 54.71164,
        "lng": 25.21772
      }
    },
    {
      "id": "vln_1805",
      "name": "Šaulių sąjunga",
      "location": {
        "lat": 54.70909,
        "lng": 25.22607
      }
    },
    {
      "id": "vln_1807",
      "name": "Viršuliškės",
      "location": {
        "lat": 54.70849,
        "lng": 25.22674
      }
    },
    {
      "id": "vln_1808",
      "name": "Viršuliškės",
      "location": {
        "lat": 54.70683,
        "lng": 25.22623
      }
    },
    {
      "id": "vln_1809",
      "name": "Spaudos rūmai",
      "location": {
        "lat": 54.70417,
        "lng": 25.22547
      }
    },
    {
      "id": "vln_1810",
      "name": "Spaudos rūmai",
      "location": {
        "lat": 54.70361,
        "lng": 25.22353
      }
    },
    {
      "id": "vln_1811",
      "name": "Spaudos rūmai",
      "location": {
        "lat": 54.70263,
        "lng": 25.22377
      }
    },
    {
      "id": "vln_1813",
      "name": "Troleibusų parkas",
      "location": {
        "lat": 54.70363,
        "lng": 25.2194
      }
    },
    {
      "id": "vln_1815",
      "name": "Kaukaro st.",
      "location": {
        "lat": 54.70665,
        "lng": 25.21577
      }
    },
    {
      "id": "vln_1818",
      "name": "Pal. Jurgio Matulaičio bažnyčia",
      "location": {
        "lat": 54.7124,
        "lng": 25.22824
      }
    },
    {
      "id": "vln_1820",
      "name": "Teodoro Narbuto st.",
      "location": {
        "lat": 54.70018,
        "lng": 25.22967
      }
    },
    {
      "id": "vln_1901",
      "name": "Saltoniškės",
      "location": {
        "lat": 54.70231,
        "lng": 25.26185
      }
    },
    {
      "id": "vln_1902",
      "name": "Šeškinė",
      "location": {
        "lat": 54.70976,
        "lng": 25.25213
      }
    },
    {
      "id": "vln_1903",
      "name": "Šeškinė",
      "location": {
        "lat": 54.70963,
        "lng": 25.25157
      }
    },
    {
      "id": "vln_1905",
      "name": "Siesikų st.",
      "location": {
        "lat": 54.70985,
        "lng": 25.24636
      }
    },
    {
      "id": "vln_1906",
      "name": "Siesikų st.",
      "location": {
        "lat": 54.7098,
        "lng": 25.24424
      }
    },
    {
      "id": "vln_1907",
      "name": "Vaikų kaimas",
      "location": {
        "lat": 54.70877,
        "lng": 25.24118
      }
    },
    {
      "id": "vln_1908",
      "name": "Vaikų kaimas",
      "location": {
        "lat": 54.70949,
        "lng": 25.24035
      }
    },
    {
      "id": "vln_1909",
      "name": "Buivydiškių st.",
      "location": {
        "lat": 54.71322,
        "lng": 25.23789
      }
    },
    {
      "id": "vln_1910",
      "name": "Buivydiškių st.",
      "location": {
        "lat": 54.71394,
        "lng": 25.23743
      }
    },
    {
      "id": "vln_1911",
      "name": "Rygos st.",
      "location": {
        "lat": 54.71575,
        "lng": 25.23211
      }
    },
    {
      "id": "vln_1912",
      "name": "Rygos st.",
      "location": {
        "lat": 54.71687,
        "lng": 25.23153
      }
    },
    {
      "id": "vln_1913",
      "name": "Čiobiškio st.",
      "location": {
        "lat": 54.71946,
        "lng": 25.23292
      }
    },
    {
      "id": "vln_1915",
      "name": "Ukmergės st.",
      "location": {
        "lat": 54.71194,
        "lng": 25.24942
      }
    },
    {
      "id": "vln_1916",
      "name": "Ukmergės st.",
      "location": {
        "lat": 54.71245,
        "lng": 25.24974
      }
    },
    {
      "id": "vln_1918",
      "name": "Dūkštų st.",
      "location": {
        "lat": 54.715,
        "lng": 25.24638
      }
    },
    {
      "id": "vln_1919",
      "name": "Musninkų st.",
      "location": {
        "lat": 54.71662,
        "lng": 25.24452
      }
    },
    {
      "id": "vln_1920",
      "name": "Musninkų st.",
      "location": {
        "lat": 54.71665,
        "lng": 25.24386
      }
    },
    {
      "id": "vln_1921",
      "name": "Šeškinės poliklinika",
      "location": {
        "lat": 54.71606,
        "lng": 25.24745
      }
    },
    {
      "id": "vln_1923",
      "name": "Šeškinės kalvos",
      "location": {
        "lat": 54.71109,
        "lng": 25.25819
      }
    },
    {
      "id": "vln_1924",
      "name": "Gelvonėlio st.",
      "location": {
        "lat": 54.71443,
        "lng": 25.25677
      }
    },
    {
      "id": "vln_1925",
      "name": "Gelvonėlio st.",
      "location": {
        "lat": 54.71505,
        "lng": 25.25741
      }
    },
    {
      "id": "vln_1926",
      "name": "Paberžės st.",
      "location": {
        "lat": 54.71616,
        "lng": 25.25481
      }
    },
    {
      "id": "vln_1927",
      "name": "Gelvonų st.",
      "location": {
        "lat": 54.71764,
        "lng": 25.25763
      }
    },
    {
      "id": "vln_1928",
      "name": "Gelvonų st.",
      "location": {
        "lat": 54.71838,
        "lng": 25.25767
      }
    },
    {
      "id": "vln_1929",
      "name": "Paberžės st.",
      "location": {
        "lat": 54.71617,
        "lng": 25.25358
      }
    },
    {
      "id": "vln_1930",
      "name": "Šeškinės kalvos",
      "location": {
        "lat": 54.71157,
        "lng": 25.257
      }
    },
    {
      "id": "vln_1931",
      "name": "Šeškinės kalvos",
      "location": {
        "lat": 54.71085,
        "lng": 25.25622
      }
    },
    {
      "id": "vln_1932",
      "name": "Šeškinės poliklinika",
      "location": {
        "lat": 54.71545,
        "lng": 25.24715
      }
    },
    {
      "id": "vln_1933",
      "name": "Musninkų st.",
      "location": {
        "lat": 54.7169,
        "lng": 25.24484
      }
    },
    {
      "id": "vln_2001",
      "name": "Mykolo Romerio universitetas",
      "location": {
        "lat": 54.73531,
        "lng": 25.25976
      }
    },
    {
      "id": "vln_2002",
      "name": "Ateities st.",
      "location": {
        "lat": 54.73707,
        "lng": 25.26672
      }
    },
    {
      "id": "vln_2004",
      "name": "Seminarija",
      "location": {
        "lat": 54.73702,
        "lng": 25.27791
      }
    },
    {
      "id": "vln_2005",
      "name": "Seminarija",
      "location": {
        "lat": 54.73576,
        "lng": 25.27801
      }
    },
    {
      "id": "vln_2006",
      "name": "Pušynas",
      "location": {
        "lat": 54.73436,
        "lng": 25.27891
      }
    },
    {
      "id": "vln_2007",
      "name": "Pušynas",
      "location": {
        "lat": 54.73328,
        "lng": 25.2788
      }
    },
    {
      "id": "vln_2008",
      "name": "Didlaukio st.",
      "location": {
        "lat": 54.72903,
        "lng": 25.26926
      }
    },
    {
      "id": "vln_2009",
      "name": "Didlaukio st.",
      "location": {
        "lat": 54.72915,
        "lng": 25.27162
      }
    },
    {
      "id": "vln_2010",
      "name": "Baltupiai",
      "location": {
        "lat": 54.72758,
        "lng": 25.27858
      }
    },
    {
      "id": "vln_2011",
      "name": "Baltupiai",
      "location": {
        "lat": 54.72688,
        "lng": 25.28001
      }
    },
    {
      "id": "vln_2012",
      "name": "Naujakiemio st.",
      "location": {
        "lat": 54.72387,
        "lng": 25.28144
      }
    },
    {
      "id": "vln_2013",
      "name": "Naujakiemio st.",
      "location": {
        "lat": 54.72467,
        "lng": 25.28114
      }
    },
    {
      "id": "vln_2014",
      "name": "Jono Kazlausko st.",
      "location": {
        "lat": 54.72145,
        "lng": 25.28502
      }
    },
    {
      "id": "vln_2015",
      "name": "Pramogų arena",
      "location": {
        "lat": 54.71508,
        "lng": 25.28573
      }
    },
    {
      "id": "vln_2016",
      "name": "Licėjus",
      "location": {
        "lat": 54.71314,
        "lng": 25.27692
      }
    },
    {
      "id": "vln_2017",
      "name": "Ateities st.",
      "location": {
        "lat": 54.736,
        "lng": 25.26599
      }
    },
    {
      "id": "vln_2101",
      "name": "Ateities st.",
      "location": {
        "lat": 54.73682,
        "lng": 25.26515
      }
    },
    {
      "id": "vln_2102",
      "name": "Ateities st.",
      "location": {
        "lat": 54.7375,
        "lng": 25.26584
      }
    },
    {
      "id": "vln_2103",
      "name": "Mokyklos st.",
      "location": {
        "lat": 54.74535,
        "lng": 25.26338
      }
    },
    {
      "id": "vln_2104",
      "name": "Mokyklos st.",
      "location": {
        "lat": 54.74629,
        "lng": 25.26375
      }
    },
    {
      "id": "vln_2105",
      "name": "Bajorų sodai",
      "location": {
        "lat": 54.75762,
        "lng": 25.25671
      }
    },
    {
      "id": "vln_2106",
      "name": "Chemijos institutas",
      "location": {
        "lat": 54.75508,
        "lng": 25.26182
      }
    },
    {
      "id": "vln_2107",
      "name": "Akademijos st.",
      "location": {
        "lat": 54.75262,
        "lng": 25.27066
      }
    },
    {
      "id": "vln_2109",
      "name": "Jono Kairiūkščio st.",
      "location": {
        "lat": 54.75705,
        "lng": 25.27026
      }
    },
    {
      "id": "vln_2110",
      "name": "Jono Kairiūkščio st.",
      "location": {
        "lat": 54.75718,
        "lng": 25.26991
      }
    },
    {
      "id": "vln_2111",
      "name": "Visoriai",
      "location": {
        "lat": 54.75781,
        "lng": 25.26474
      }
    },
    {
      "id": "vln_2112",
      "name": "Kalvarijos",
      "location": {
        "lat": 54.73933,
        "lng": 25.27535
      }
    },
    {
      "id": "vln_2113",
      "name": "Kalvarijos",
      "location": {
        "lat": 54.73997,
        "lng": 25.27677
      }
    },
    {
      "id": "vln_2114",
      "name": "Jeruzalė",
      "location": {
        "lat": 54.74295,
        "lng": 25.27691
      }
    },
    {
      "id": "vln_2115",
      "name": "Jeruzalė",
      "location": {
        "lat": 54.74415,
        "lng": 25.27788
      }
    },
    {
      "id": "vln_2116",
      "name": "Žaliųjų Ežerų st.",
      "location": {
        "lat": 54.74855,
        "lng": 25.27913
      }
    },
    {
      "id": "vln_2117",
      "name": "Molėtų plentas",
      "location": {
        "lat": 54.74975,
        "lng": 25.2781
      }
    },
    {
      "id": "vln_2118",
      "name": "Molėtų plentas",
      "location": {
        "lat": 54.75031,
        "lng": 25.27754
      }
    },
    {
      "id": "vln_2120",
      "name": "Žaliųjų Ežerų st.",
      "location": {
        "lat": 54.75062,
        "lng": 25.27982
      }
    },
    {
      "id": "vln_2121",
      "name": "Santariškės",
      "location": {
        "lat": 54.752,
        "lng": 25.27979
      }
    },
    {
      "id": "vln_2122",
      "name": "Santariškės",
      "location": {
        "lat": 54.75286,
        "lng": 25.28031
      }
    },
    {
      "id": "vln_2123",
      "name": "Vaikų ligoninė",
      "location": {
        "lat": 54.75526057243576,
        "lng": 25.280701052743808
      }
    },
    {
      "id": "vln_2125",
      "name": "Petro Baublio st.",
      "location": {
        "lat": 54.75052,
        "lng": 25.28355
      }
    },
    {
      "id": "vln_2127",
      "name": "Petro Baublio st.",
      "location": {
        "lat": 54.75086,
        "lng": 25.28497
      }
    },
    {
      "id": "vln_2128",
      "name": "Verkių rūmai",
      "location": {
        "lat": 54.75224,
        "lng": 25.29599
      }
    },
    {
      "id": "vln_2129",
      "name": "Verkių rūmai",
      "location": {
        "lat": 54.75236,
        "lng": 25.29645
      }
    },
    {
      "id": "vln_2130",
      "name": "Ežerėliai",
      "location": {
        "lat": 54.76131,
        "lng": 25.30666
      }
    },
    {
      "id": "vln_2131",
      "name": "Maumedžių st.",
      "location": {
        "lat": 54.74065,
        "lng": 25.26436
      }
    },
    {
      "id": "vln_2132",
      "name": "Maumedžių st.",
      "location": {
        "lat": 54.74108,
        "lng": 25.26437
      }
    },
    {
      "id": "vln_2133",
      "name": "Chemijos institutas",
      "location": {
        "lat": 54.75385,
        "lng": 25.26385
      }
    },
    {
      "id": "vln_2134",
      "name": "Muzikų st.",
      "location": {
        "lat": 54.75921,
        "lng": 25.28157
      }
    },
    {
      "id": "vln_2135",
      "name": "Muzikų st.",
      "location": {
        "lat": 54.75832,
        "lng": 25.28103
      }
    },
    {
      "id": "vln_2136",
      "name": "Santariškių žiedas",
      "location": {
        "lat": 54.76359,
        "lng": 25.28252
      }
    },
    {
      "id": "vln_2137",
      "name": "Santariškių žiedas",
      "location": {
        "lat": 54.7637,
        "lng": 25.28215
      }
    },
    {
      "id": "vln_2138",
      "name": "Vaikų ligoninė",
      "location": {
        "lat": 54.75551,
        "lng": 25.28054
      }
    },
    {
      "id": "vln_2141",
      "name": "Akademijos st.",
      "location": {
        "lat": 54.75263,
        "lng": 25.27239
      }
    },
    {
      "id": "vln_2143",
      "name": "Akademijos st.",
      "location": {
        "lat": 54.75391,
        "lng": 25.27025
      }
    },
    {
      "id": "vln_2144",
      "name": "Akademijos st.",
      "location": {
        "lat": 54.75352,
        "lng": 25.26838
      }
    },
    {
      "id": "vln_2145",
      "name": "Geležinio Vilko st.",
      "location": {
        "lat": 54.75762,
        "lng": 25.27183
      }
    },
    {
      "id": "vln_2146",
      "name": "Geležinio Vilko st.",
      "location": {
        "lat": 54.75848,
        "lng": 25.27229
      }
    },
    {
      "id": "vln_2147",
      "name": "Vaikų ligoninė",
      "location": {
        "lat": 54.75613,
        "lng": 25.28085
      }
    },
    {
      "id": "vln_2148",
      "name": "Bajorai",
      "location": {
        "lat": 54.75673,
        "lng": 25.23716
      }
    },
    {
      "id": "vln_2149",
      "name": "Mokslininkų st.",
      "location": {
        "lat": 54.75454,
        "lng": 25.2493
      }
    },
    {
      "id": "vln_2150",
      "name": "Mokslininkų st.",
      "location": {
        "lat": 54.75445,
        "lng": 25.24977
      }
    },
    {
      "id": "vln_2152",
      "name": "Riaubonių st.",
      "location": {
        "lat": 54.75526,
        "lng": 25.23294
      }
    },
    {
      "id": "vln_2153",
      "name": "Šaulio st.",
      "location": {
        "lat": 54.75759,
        "lng": 25.22938
      }
    },
    {
      "id": "vln_2154",
      "name": "Bajorų miškas",
      "location": {
        "lat": 54.75633,
        "lng": 25.24233
      }
    },
    {
      "id": "vln_2155",
      "name": "Bajorų miškas",
      "location": {
        "lat": 54.75626,
        "lng": 25.2425
      }
    },
    {
      "id": "vln_2156",
      "name": "Vaikų ligoninė (išlaipinama)",
      "location": {
        "lat": 54.75524,
        "lng": 25.28088
      }
    },
    {
      "id": "vln_2157",
      "name": "Bajorai",
      "location": {
        "lat": 54.75682,
        "lng": 25.23783
      }
    },
    {
      "id": "vln_2158",
      "name": "Šaulio st.",
      "location": {
        "lat": 54.75772,
        "lng": 25.229
      }
    },
    {
      "id": "vln_2201",
      "name": "Ežerėliai",
      "location": {
        "lat": 54.76255,
        "lng": 25.31018
      }
    },
    {
      "id": "vln_2202",
      "name": "Naujieji Verkiai",
      "location": {
        "lat": 54.75984,
        "lng": 25.33217
      }
    },
    {
      "id": "vln_2204",
      "name": "Vaikų darželis",
      "location": {
        "lat": 54.76306,
        "lng": 25.33591
      }
    },
    {
      "id": "vln_2205",
      "name": "Vaikų darželis",
      "location": {
        "lat": 54.76256,
        "lng": 25.33563
      }
    },
    {
      "id": "vln_2207",
      "name": "Kremplių st.",
      "location": {
        "lat": 54.76725,
        "lng": 25.33566
      }
    },
    {
      "id": "vln_2208",
      "name": "Popieriaus st.",
      "location": {
        "lat": 54.76987,
        "lng": 25.33202
      }
    },
    {
      "id": "vln_2209",
      "name": "Popieriaus st.",
      "location": {
        "lat": 54.76996,
        "lng": 25.33261
      }
    },
    {
      "id": "vln_2210",
      "name": "Kurklių st.",
      "location": {
        "lat": 54.77002,
        "lng": 25.3265
      }
    },
    {
      "id": "vln_2211",
      "name": "Kurklių st.",
      "location": {
        "lat": 54.77033,
        "lng": 25.32744
      }
    },
    {
      "id": "vln_2212",
      "name": "Verkių Riešė",
      "location": {
        "lat": 54.77695,
        "lng": 25.33699
      }
    },
    {
      "id": "vln_2213",
      "name": "Verkių Riešė",
      "location": {
        "lat": 54.77739,
        "lng": 25.33811
      }
    },
    {
      "id": "vln_2214",
      "name": "Staviškės",
      "location": {
        "lat": 54.76345,
        "lng": 25.35162
      }
    },
    {
      "id": "vln_2215",
      "name": "Staviškės",
      "location": {
        "lat": 54.76398,
        "lng": 25.35276
      }
    },
    {
      "id": "vln_2216",
      "name": "Ožkiniai",
      "location": {
        "lat": 54.76706,
        "lng": 25.36011
      }
    },
    {
      "id": "vln_2217",
      "name": "Ožkiniai",
      "location": {
        "lat": 54.76718,
        "lng": 25.3615
      }
    },
    {
      "id": "vln_2218",
      "name": "Ožkinių žiedas",
      "location": {
        "lat": 54.76844,
        "lng": 25.36646
      }
    },
    {
      "id": "vln_2219",
      "name": "Ragučio st.",
      "location": {
        "lat": 54.78026,
        "lng": 25.34204
      }
    },
    {
      "id": "vln_2220",
      "name": "Ragučio st.",
      "location": {
        "lat": 54.78076,
        "lng": 25.34263
      }
    },
    {
      "id": "vln_2222",
      "name": "Balsiai",
      "location": {
        "lat": 54.78595,
        "lng": 25.34779
      }
    },
    {
      "id": "vln_2223",
      "name": "Kryžiokai",
      "location": {
        "lat": 54.79219,
        "lng": 25.35118
      }
    },
    {
      "id": "vln_2224",
      "name": "Naujoji st.",
      "location": {
        "lat": 54.76332,
        "lng": 25.34632
      }
    },
    {
      "id": "vln_2225",
      "name": "Naujoji st.",
      "location": {
        "lat": 54.76349,
        "lng": 25.34598
      }
    },
    {
      "id": "vln_2226",
      "name": "Naujaneriai",
      "location": {
        "lat": 54.80173,
        "lng": 25.34841
      }
    },
    {
      "id": "vln_2227",
      "name": "Naujaneriai",
      "location": {
        "lat": 54.80194,
        "lng": 25.34928
      }
    },
    {
      "id": "vln_2228",
      "name": "Paežerys",
      "location": {
        "lat": 54.8003,
        "lng": 25.33611
      }
    },
    {
      "id": "vln_2229",
      "name": "Paežerys",
      "location": {
        "lat": 54.80012,
        "lng": 25.33534
      }
    },
    {
      "id": "vln_2230",
      "name": "Diemedis",
      "location": {
        "lat": 54.80323,
        "lng": 25.32958
      }
    },
    {
      "id": "vln_2231",
      "name": "Diemedis",
      "location": {
        "lat": 54.80289,
        "lng": 25.32974
      }
    },
    {
      "id": "vln_2233",
      "name": "Gulbinų st.",
      "location": {
        "lat": 54.80584,
        "lng": 25.31892
      }
    },
    {
      "id": "vln_2234",
      "name": "Gulbinų st.",
      "location": {
        "lat": 54.8056,
        "lng": 25.31976
      }
    },
    {
      "id": "vln_2235",
      "name": "Pagubė",
      "location": {
        "lat": 54.80796,
        "lng": 25.3132
      }
    },
    {
      "id": "vln_2236",
      "name": "Kryžiokai",
      "location": {
        "lat": 54.79161,
        "lng": 25.35127
      }
    },
    {
      "id": "vln_2237",
      "name": "Sakališkės",
      "location": {
        "lat": 54.81469,
        "lng": 25.32187
      }
    },
    {
      "id": "vln_2238",
      "name": "Krakiškės",
      "location": {
        "lat": 54.79594,
        "lng": 25.34992
      }
    },
    {
      "id": "vln_2239",
      "name": "Krakiškės",
      "location": {
        "lat": 54.79522,
        "lng": 25.35003
      }
    },
    {
      "id": "vln_2243",
      "name": "Bireliai",
      "location": {
        "lat": 54.82118,
        "lng": 25.32066
      }
    },
    {
      "id": "vln_2244",
      "name": "Bireliai",
      "location": {
        "lat": 54.82099,
        "lng": 25.32052
      }
    },
    {
      "id": "vln_2245",
      "name": "Birelių žiedas",
      "location": {
        "lat": 54.82336,
        "lng": 25.3303
      }
    },
    {
      "id": "vln_2247",
      "name": "Juozapiškės",
      "location": {
        "lat": 54.80698,
        "lng": 25.3528
      }
    },
    {
      "id": "vln_2249",
      "name": "Sakališkės",
      "location": {
        "lat": 54.81465,
        "lng": 25.32173
      }
    },
    {
      "id": "vln_2250",
      "name": "Pagubės sodai",
      "location": {
        "lat": 54.80599,
        "lng": 25.32749
      }
    },
    {
      "id": "vln_2251",
      "name": "Pagubės sodai",
      "location": {
        "lat": 54.80638,
        "lng": 25.32727
      }
    },
    {
      "id": "vln_2252",
      "name": "Pagubės sodai",
      "location": {
        "lat": 54.80621,
        "lng": 25.32679
      }
    },
    {
      "id": "vln_2253",
      "name": "Ąžuolynas",
      "location": {
        "lat": 54.81125,
        "lng": 25.32378
      }
    },
    {
      "id": "vln_2254",
      "name": "Ąžuolynas",
      "location": {
        "lat": 54.81099,
        "lng": 25.32384
      }
    },
    {
      "id": "vln_2255",
      "name": "Austėjos st.",
      "location": {
        "lat": 54.77823,
        "lng": 25.34554
      }
    },
    {
      "id": "vln_2256",
      "name": "Austėjos st.",
      "location": {
        "lat": 54.77817,
        "lng": 25.34615
      }
    },
    {
      "id": "vln_2257",
      "name": "Žalčių st.",
      "location": {
        "lat": 54.77816,
        "lng": 25.35174
      }
    },
    {
      "id": "vln_2258",
      "name": "Žalčių st.",
      "location": {
        "lat": 54.77804,
        "lng": 25.35262
      }
    },
    {
      "id": "vln_2259",
      "name": "Balsių mokykla",
      "location": {
        "lat": 54.78058,
        "lng": 25.3598
      }
    },
    {
      "id": "vln_2260",
      "name": "Krakiškių sodai",
      "location": {
        "lat": 54.80074,
        "lng": 25.34014
      }
    },
    {
      "id": "vln_2261",
      "name": "Ragės st.",
      "location": {
        "lat": 54.78495,
        "lng": 25.35139
      }
    },
    {
      "id": "vln_2262",
      "name": "Ragės st.",
      "location": {
        "lat": 54.78468,
        "lng": 25.35194
      }
    },
    {
      "id": "vln_2263",
      "name": "Balsiai",
      "location": {
        "lat": 54.78604,
        "lng": 25.34776
      }
    },
    {
      "id": "vln_2264",
      "name": "Krakiškių sodai",
      "location": {
        "lat": 54.80091,
        "lng": 25.34074
      }
    },
    {
      "id": "vln_2265",
      "name": "Žaliojo Visalaukio st.",
      "location": {
        "lat": 54.7786,
        "lng": 25.34072
      }
    },
    {
      "id": "vln_2267",
      "name": "Žaliojo Visalaukio st.",
      "location": {
        "lat": 54.77863,
        "lng": 25.34044
      }
    },
    {
      "id": "vln_2268",
      "name": "Laimos st.",
      "location": {
        "lat": 54.7781,
        "lng": 25.35586
      }
    },
    {
      "id": "vln_2269",
      "name": "Laimos st.",
      "location": {
        "lat": 54.77804,
        "lng": 25.35628
      }
    },
    {
      "id": "vln_2296",
      "name": "Žilvičių st.",
      "location": {
        "lat": 54.70689,
        "lng": 25.38114
      }
    },
    {
      "id": "vln_2297",
      "name": "Žilvičių st.",
      "location": {
        "lat": 54.70684,
        "lng": 25.38076
      }
    },
    {
      "id": "vln_2388regio",
      "name": "Verbų st.",
      "location": {
        "lat": 54.69455,
        "lng": 25.44464
      }
    },
    {
      "id": "vln_2391",
      "name": "Uosių sodai",
      "location": {
        "lat": 54.70754,
        "lng": 25.38691
      }
    },
    {
      "id": "vln_2298",
      "name": "Mileišiškės",
      "location": {
        "lat": 54.71172,
        "lng": 25.34209
      }
    },
    {
      "id": "vln_2392",
      "name": "Uosių sodai",
      "location": {
        "lat": 54.7077,
        "lng": 25.38548
      }
    },
    {
      "id": "vln_2393",
      "name": "Rokantiškių sodai",
      "location": {
        "lat": 54.7059,
        "lng": 25.37578
      }
    },
    {
      "id": "vln_2394",
      "name": "Rokantiškių sodai",
      "location": {
        "lat": 54.70606,
        "lng": 25.37675
      }
    },
    {
      "id": "vln_2395",
      "name": "Anapilio st.",
      "location": {
        "lat": 54.70764,
        "lng": 25.35853
      }
    },
    {
      "id": "vln_2396",
      "name": "Anapilio st.",
      "location": {
        "lat": 54.70771,
        "lng": 25.3584
      }
    },
    {
      "id": "vln_2397",
      "name": "Viršupio sodai",
      "location": {
        "lat": 54.71267,
        "lng": 25.35319
      }
    },
    {
      "id": "vln_2398",
      "name": "Viršupio sodai",
      "location": {
        "lat": 54.71332,
        "lng": 25.3526
      }
    },
    {
      "id": "vln_2399",
      "name": "Mileišiškių sodai",
      "location": {
        "lat": 54.71312,
        "lng": 25.34809
      }
    },
    {
      "id": "vln_2400",
      "name": "Mileišiškių sodai",
      "location": {
        "lat": 54.71297,
        "lng": 25.34743
      }
    },
    {
      "id": "vln_2401",
      "name": "Eigulių st.",
      "location": {
        "lat": 54.669,
        "lng": 25.23547
      }
    },
    {
      "id": "vln_2402",
      "name": "Burbiškės",
      "location": {
        "lat": 54.6668,
        "lng": 25.25275
      }
    },
    {
      "id": "vln_2404",
      "name": "Vilkpėdės st.",
      "location": {
        "lat": 54.66478,
        "lng": 25.23679
      }
    },
    {
      "id": "vln_2405",
      "name": "Vilkpėdės st.",
      "location": {
        "lat": 54.66331,
        "lng": 25.23548
      }
    },
    {
      "id": "vln_2406",
      "name": "Riovonys",
      "location": {
        "lat": 54.65967,
        "lng": 25.23359
      }
    },
    {
      "id": "vln_2407",
      "name": "Riovonys",
      "location": {
        "lat": 54.65893,
        "lng": 25.23233
      }
    },
    {
      "id": "vln_2408",
      "name": "Pakalniškių st.",
      "location": {
        "lat": 54.65453,
        "lng": 25.22513
      }
    },
    {
      "id": "vln_2409",
      "name": "Pakalniškių st.",
      "location": {
        "lat": 54.65416,
        "lng": 25.22384
      }
    },
    {
      "id": "vln_2410",
      "name": "Baldai",
      "location": {
        "lat": 54.65066,
        "lng": 25.21825
      }
    },
    {
      "id": "vln_2411",
      "name": "Baldai",
      "location": {
        "lat": 54.64983,
        "lng": 25.21614
      }
    },
    {
      "id": "vln_2412",
      "name": "Sausupio st.",
      "location": {
        "lat": 54.64722,
        "lng": 25.21217
      }
    },
    {
      "id": "vln_2413",
      "name": "Žemieji Paneriai",
      "location": {
        "lat": 54.64608,
        "lng": 25.20948
      }
    },
    {
      "id": "vln_2414",
      "name": "Vaduvos st.",
      "location": {
        "lat": 54.64487,
        "lng": 25.20712
      }
    },
    {
      "id": "vln_2415",
      "name": "Vaduvos st.",
      "location": {
        "lat": 54.64438,
        "lng": 25.20665
      }
    },
    {
      "id": "vln_2416",
      "name": "Ūmėdžių st.",
      "location": {
        "lat": 54.64262,
        "lng": 25.20425
      }
    },
    {
      "id": "vln_2417",
      "name": "Valkininkų st.",
      "location": {
        "lat": 54.64406,
        "lng": 25.20256
      }
    },
    {
      "id": "vln_2418",
      "name": "Valkininkų st.",
      "location": {
        "lat": 54.64372,
        "lng": 25.20184
      }
    },
    {
      "id": "vln_2419",
      "name": "Šaltupio st.",
      "location": {
        "lat": 54.64676,
        "lng": 25.19113
      }
    },
    {
      "id": "vln_2420",
      "name": "Šaltupio st.",
      "location": {
        "lat": 54.64734,
        "lng": 25.19038
      }
    },
    {
      "id": "vln_2421",
      "name": "Titnago st.",
      "location": {
        "lat": 54.6497,
        "lng": 25.18613
      }
    },
    {
      "id": "vln_2421a",
      "name": "Titnago st.",
      "location": {
        "lat": 54.65049,
        "lng": 25.18459
      }
    },
    {
      "id": "vln_2422",
      "name": "Jankiškių st.",
      "location": {
        "lat": 54.64537,
        "lng": 25.19468
      }
    },
    {
      "id": "vln_2423",
      "name": "Jankiškių st.",
      "location": {
        "lat": 54.64506,
        "lng": 25.19522
      }
    },
    {
      "id": "vln_2424",
      "name": "Vilkpėdės žiedas",
      "location": {
        "lat": 54.66563,
        "lng": 25.24565
      }
    },
    {
      "id": "vln_2425",
      "name": "Vilkpėdės žiedas",
      "location": {
        "lat": 54.66575,
        "lng": 25.24501
      }
    },
    {
      "id": "vln_2501",
      "name": "Vaidotai",
      "location": {
        "lat": 54.59876,
        "lng": 25.17635
      }
    },
    {
      "id": "vln_2502",
      "name": "Vėjo st.",
      "location": {
        "lat": 54.59573918081938,
        "lng": 25.175577816587463
      }
    },
    {
      "id": "vln_2601",
      "name": "Eišiškių plentas",
      "location": {
        "lat": 54.64925,
        "lng": 25.26784
      }
    },
    {
      "id": "vln_2602",
      "name": "Eišiškių plentas",
      "location": {
        "lat": 54.6497,
        "lng": 25.26853
      }
    },
    {
      "id": "vln_2603",
      "name": "Eišiškių plentas",
      "location": {
        "lat": 54.65129,
        "lng": 25.27177
      }
    },
    {
      "id": "vln_2604",
      "name": "Eišiškių plentas",
      "location": {
        "lat": 54.65148,
        "lng": 25.27186
      }
    },
    {
      "id": "vln_2605",
      "name": "Metalo st.",
      "location": {
        "lat": 54.64581,
        "lng": 25.26501
      }
    },
    {
      "id": "vln_2606",
      "name": "Metalo st.",
      "location": {
        "lat": 54.64632,
        "lng": 25.26573
      }
    },
    {
      "id": "vln_2607",
      "name": "Dariaus ir Girėno st.",
      "location": {
        "lat": 54.64719,
        "lng": 25.27313
      }
    },
    {
      "id": "vln_2608",
      "name": "Dariaus ir Girėno st.",
      "location": {
        "lat": 54.64755,
        "lng": 25.27318
      }
    },
    {
      "id": "vln_2609",
      "name": "Metalo st.",
      "location": {
        "lat": 54.64556,
        "lng": 25.26567
      }
    },
    {
      "id": "vln_2611",
      "name": "Felikso Vaitkaus st.",
      "location": {
        "lat": 54.64478,
        "lng": 25.27357
      }
    },
    {
      "id": "vln_2612",
      "name": "Felikso Vaitkaus st.",
      "location": {
        "lat": 54.64352,
        "lng": 25.27401
      }
    },
    {
      "id": "vln_2613",
      "name": "Oro uostas",
      "location": {
        "lat": 54.64331,
        "lng": 25.27948
      }
    },
    {
      "id": "vln_2614",
      "name": "Hidrogeologijos st.",
      "location": {
        "lat": 54.64344,
        "lng": 25.26321
      }
    },
    {
      "id": "vln_2615",
      "name": "Hidrogeologijos st.",
      "location": {
        "lat": 54.64295,
        "lng": 25.26267
      }
    },
    {
      "id": "vln_2616",
      "name": "Geologų st.",
      "location": {
        "lat": 54.63986,
        "lng": 25.26679
      }
    },
    {
      "id": "vln_2617",
      "name": "Geologų st.",
      "location": {
        "lat": 54.63868,
        "lng": 25.26684
      }
    },
    {
      "id": "vln_2618",
      "name": "Kirtimai",
      "location": {
        "lat": 54.63684,
        "lng": 25.27461
      }
    },
    {
      "id": "vln_2619",
      "name": "Kirtimai",
      "location": {
        "lat": 54.63748,
        "lng": 25.27466
      }
    },
    {
      "id": "vln_2620",
      "name": "Tiekimo st.",
      "location": {
        "lat": 54.63206,
        "lng": 25.27312
      }
    },
    {
      "id": "vln_2621",
      "name": "Tiekimo st.",
      "location": {
        "lat": 54.63323,
        "lng": 25.27323
      }
    },
    {
      "id": "vln_2622",
      "name": "Kirtimų geležinkelio stotis",
      "location": {
        "lat": 54.62953,
        "lng": 25.2722
      }
    },
    {
      "id": "vln_2623",
      "name": "Katilinė",
      "location": {
        "lat": 54.63486,
        "lng": 25.26604
      }
    },
    {
      "id": "vln_2624",
      "name": "Verslo st.",
      "location": {
        "lat": 54.63933,
        "lng": 25.25934
      }
    },
    {
      "id": "vln_2625",
      "name": "Verslo st.",
      "location": {
        "lat": 54.63898,
        "lng": 25.25882
      }
    },
    {
      "id": "vln_2627",
      "name": "Elektros st.",
      "location": {
        "lat": 54.63399,
        "lng": 25.25666
      }
    },